연번,시도,시군구,기관명,주소,기관 대표전화,위수탁기간,시설유형구분,특화서비스,응급안전안심서비스,방문요양서비스,재가노인복지서비스,사회서비스원 소속,사회서비스형 노인일자리 파견 이용,위도,경도,주소2
1,서울특별시,강남구,강남구노인통합지원센터,"서울특별시 강남구 봉은사로24길 70, 2층",02-557-8091,2022-03-01 ~ 2025-02-28 (3년),재가노인복지시설,해당,해당없음,해당없음,해당없음,해당없음,해당없음,37.50238865,127.0318772,서울특별시 강남구 봉은사로24길 70
2,서울특별시,강동구,시립강동노인종합복지관,서울특별시 강동구 동남로71길 32-5,02-442-1026,2023-01-01 ~ 2024-12-31 (2년),노인여가복지시설,해당없음,해당없음,해당없음,해당없음,해당없음,해당없음,37.55232055,127.1541935,서울특별시 강동구 동남로71길 32-5
3,서울특별시,강동구,성가정노인종합복지관,서울특별시 강동구 양재대로156길 28,02-481-2218,2023-01-01 ~ 2024-12-31 (2년),노인여가복지시설,해당없음,해당없음,해당없음,해당없음,해당없음,해당없음,37.55631796,127.148621,서울특별시 강동구 양재대로156길 28
4,서울특별시,강동구,성내종합사회복지관,서울특별시 강동구 성안로13길 56,02-478-2555,2023-01-01 ~ 2024-12-31 (2년),사회복지관,해당없음,해당없음,해당없음,해당없음,해당없음,해당없음,37.53179762,127.130259,서울특별시 강동구 성안로13길 56
5,서울특별시,강북구,시립강북노인종합복지관,서울특별시 강북구 삼양로92길 40(인수동),02-999-9179,2023-01-01 ~ 2025-12-31 (3년),노인여가복지시설,해당,해당없음,해당없음,해당없음,해당없음,해당없음,37.63568682,127.0187526,서울특별시 강북구 삼양로92길 40
6,서울특별시,강북구,꿈의숲종합사회복지관,"서울특별시 강북구 오현로 208, 302동 1층",02-984-6777,2023-01-01 ~ 2025-12-31 (3년),사회복지관,해당없음,해당없음,해당없음,해당없음,해당없음,해당없음,37.63013826,127.0414162,서울특별시 강북구 오현로 208
7,서울특별시,강북구,강북재가노인지원센터,"서울 강북구 삼양로 478 (수유동, 동훈빌딩) 2층",02-945-9988,2023-01-01 ~ 2025-12-31 (3년),재가노인복지시설,해당없음,해당없음,해당없음,해당없음,해당없음,해당없음,37.64594743,127.0155297,서울 강북구 삼양로 478  2층
8,서울특별시,강북구,번오마을종합사회복지관,"서울 강북구 한천로115길 20 (번동, 번동주공5단지아파트)",02-981-5077,2024-01-01 ~ 2025-12-31 (2년),사회복지관,해당없음,해당없음,해당없음,해당없음,해당없음,해당없음,37.63368532,127.0345341,서울 강북구 한천로115길 20
9,서울특별시,강서구,참사랑재가노인지원센터,"서울특별시 강서구 금낭화로 54-20 3층 (방화동, 이화빌딩)",02-2064-0102,2024-01-01 ~ 2025-12-31 (2년),재가노인복지시설,해당없음,해당없음,해당없음,해당,해당없음,해당없음,37.57018341,126.8124673,서울특별시 강서구 금낭화로 54-20 3층
10,서울특별시,강서구,강서노인종합복지관,서울특별시 강서구 화곡로61길 85,02-3664-0322,2024-01-01 ~ 2025-12-31 (2년),노인여가복지시설,해당없음,해당없음,해당없음,해당없음,해당없음,해당없음,37.5581184,126.8474584,서울특별시 강서구 화곡로61길 85
11,서울특별시,강서구,강서구립봉제산어르신복지센터,서울특별시 강서구 초록마을로15길 12(화곡동),02-2605-1553,2024-01-01 ~ 2025-12-31 (2년),노인여가복지시설,해당없음,해당없음,해당없음,해당없음,해당없음,해당없음,37.54152282,126.8514079,서울특별시 강서구 초록마을로15길 12
12,서울특별시,관악구,신림종합사회복지관,서울특별시 관악구 난곡로 110 (난향동),02-851-1767,2023-01-01 ~ 2024-12-31 (2년),사회복지관,해당,해당없음,해당없음,해당없음,해당없음,해당없음,37.4648376,126.9198595,서울특별시 관악구 난곡로 110
13,서울특별시,관악구,성민종합사회복지관,서울특별시 관악구 호암로 549(신림동),02-876-0900,2023-01-01 ~ 2024-12-31 (2년),사회복지관,해당없음,해당없음,해당없음,해당없음,해당없음,해당없음,37.46678996,126.9312404,서울특별시 관악구 호암로 549
14,서울특별시,관악구,사회적협동조합 우리사이,서울 관악구 남부순환로 1457 (신림동) 2층 사회적협동조합 우리사이,02-883-0142,2023-01-01 ~ 2024-12-31 (2년),협동조합,해당없음,해당없음,해당없음,해당없음,해당없음,해당없음,37.48173499,126.9125343,서울 관악구 남부순환로 1457  2층 사회적협동조합 우리사이
15,서울특별시,관악구,시립관악노인종합복지관,서울특별시 관악구 보라매로 35,02-888-6144,2023-01-01 ~ 2025-12-31 (3년),노인여가복지시설,해당,해당없음,해당없음,해당없음,해당없음,해당없음,37.49260705,126.9268543,서울특별시 관악구 보라매로 35
16,서울특별시,광진구,늘푸른돌봄센터,"서울 광진구 용마산로8길 65 (중곡동, 공유공간 돌봄)",02-461-8373,2024-01-01 ~ 2026-12-31 (3년),재가노인복지시설,해당없음,해당없음,해당,해당없음,해당없음,해당없음,37.55946741,127.091464,서울 광진구 용마산로8길 65
17,서울특별시,광진구,광진노인종합복지관,서울특별시 광진구 군자로 88,02-466-6242,2024-01-01 ~ 2026-12-31 (3년),노인여가복지시설,해당없음,해당없음,해당없음,해당,해당없음,해당없음,37.55216384,127.0713648,서울특별시 광진구 군자로 88
18,서울특별시,구로구,구로어르신돌봄통합센터,서울특별시 구로구 디지털로27다길 65 지하1층,02-868-1554,2024-01-01 ~ 2025-11-30 (2년),재가노인복지시설,해당없음,해당없음,해당없음,해당,해당없음,해당없음,37.48714316,126.8901547,서울특별시 구로구 디지털로27다길 65 지하1층
19,서울특별시,구로구,구로노인종합복지관,서울특별시 구로구 새말로16길 7,02-838-4600,2024-01-01 ~ 2024-12-09 (1년),노인여가복지시설,해당,해당없음,해당없음,해당없음,해당없음,해당없음,37.50412411,126.8911917,서울특별시 구로구 새말로16길 7
20,서울특별시,구로구,궁동종합사회복지관,서울특별시 구로구 오리로22길 5,02-2613-9367,2024-01-01 ~ 2026-12-31 (3년),사회복지관,해당없음,해당없음,해당없음,해당없음,해당없음,해당없음,37.499034,126.82965,서울특별시 구로구 오리로22길 5
21,서울특별시,금천구,금천한내어르신복지센터,"서울특별시 금천구 한내로 69-15(독산동), 금천한내복지관 4층",02-897-5104,2023-01-01 ~ 2024-12-31 (2년),노인여가복지시설,해당,해당없음,해당없음,해당없음,해당없음,해당없음,37.45738086,126.8864725,서울특별시 금천구 한내로 69-15
22,서울특별시,금천구,금천호암노인종합복지관,서울특별시 금천구 독산로72길 86-5,02-853-7203,2024-01-01 ~ 2025-12-31 (2년),노인여가복지시설,해당,해당없음,해당없음,해당없음,해당없음,해당없음,37.4682764,126.9028557,서울특별시 금천구 독산로72길 86-5
23,서울특별시,금천구,금천노인종합복지관,서울특별시 금천구 시흥대로51길 93-32,02-804-4058,2022-01-01 ~ 2024-12-31 (3년),노인여가복지시설,해당없음,해당없음,해당없음,해당없음,해당없음,해당없음,37.45123957,126.8986897,서울특별시 금천구 시흥대로51길 93-32
24,서울특별시,노원구,서울노원남부지역자활센터,"서울특별시 노원구 동일로178길 19-38 204호, 302호, 402호, (공릉동, 연세빌딩)",02-941-6594,2023-01-01 ~ 2025-12-31 (3년),지역자활센터,해당없음,해당없음,해당없음,해당없음,해당없음,해당없음,37.62209372,127.0757125,서울특별시 노원구 동일로178길 19-38 204호
25,서울특별시,노원구,시립노원노인종합복지관,서울특별시 노원구 노원로16길 15(하계동),02-948-7350,2023-01-01 ~ 2025-12-31 (3년),노인여가복지시설,해당없음,해당없음,해당없음,해당없음,해당없음,해당없음,37.64344507,127.0733372,서울특별시 노원구 노원로16길 15
26,서울특별시,노원구,노원구어르신돌봄지원센터,"서울특별시 노원구 상계로23길 17, 원터행복발전소3층",02-935-5000,2023-01-01 ~ 2025-12-31 (3년),재가노인복지시설,해당없음,해당없음,해당없음,해당,해당없음,해당없음,37.65881152,127.068523,서울특별시 노원구 상계로23길 17
27,서울특별시,도봉구,서울시립 도봉노인종합복지관,서울특별시 도봉구 도당로2길 12-13,02-993-9900,2024-01-01 ~ 2026-12-31 (3년),노인여가복지시설,해당,해당없음,해당없음,해당,해당없음,해당없음,37.65904085,127.0369238,서울특별시 도봉구 도당로2길 12-13
28,서울특별시,도봉구,한결재가돌봄센터,서울특별시 도봉구 도봉로164길 33-25 502호,02-955-2505,2024-01-01 ~ 2026-12-31 (3년),협동조합,해당없음,해당없음,해당없음,해당없음,해당없음,해당없음,37.67648534,127.0471941,서울특별시 도봉구 도봉로164길 33-25 502호
29,서울특별시,도봉구,도봉재가노인지원센터,서울특별시 도봉구 시루봉로 130 (방학동) 5층,02-3494-6060,2024-01-01 ~ 2026-12-31 (3년),재가노인복지시설,해당없음,해당없음,해당없음,해당,해당없음,해당없음,37.66241991,127.0277774,서울특별시 도봉구 시루봉로 130  5층
30,서울특별시,동대문구,동대문노인종합복지관,"서울특별시 동대문구 제기로33길 25, 동대문노인종합복지관 (청량리동, 동대문노인종합복지관)",02-963-0565,2023-01-01 ~ 2024-12-31 (2년),노인여가복지시설,해당,해당없음,해당없음,해당없음,해당없음,해당,37.58724134,127.0498265,서울특별시 동대문구 제기로33길 25
31,서울특별시,동대문구,은천재가노인지원센터,서울특별시 동대문구 장한로27가길 53,02-2249-0580,2023-01-01 ~ 2024-12-31 (2년),재가노인복지시설,해당없음,해당없음,해당없음,해당,해당없음,해당없음,37.57494425,127.0711675,서울특별시 동대문구 장한로27가길 53
32,서울특별시,동작구,동작노인종합복지관,서울특별시 동작구 상도로11길 7,02-823-0064,2023-01-01 ~ 2025-12-31 (3년),노인여가복지시설,해당,해당없음,해당없음,해당,해당없음,해당없음,37.50061119,126.9296492,서울특별시 동작구 상도로11길 7
33,서울특별시,동작구,사당어르신종합복지관,서울특별시 동작구 사당동 남부순환로 2081,02-580-2461,2023-01-01 ~ 2025-12-31 (3년),노인여가복지시설,해당,해당없음,해당없음,해당없음,해당없음,해당없음,37.47701714,126.9798517,서울특별시 동작구 사당동 남부순환로 2081
34,서울특별시,마포구,마포노인복지센터,"서울특별시 마포구 만리재로 99 / 2, 3층",02-712-3642,2022-01-01 ~ 2024-12-31 (3년),재가노인복지시설,해당없음,해당없음,해당,해당,해당없음,해당없음,37.47701714,126.9596775,서울특별시 마포구 만리재로 99
35,서울특별시,마포구,마포어르신돌봄통합센터,서울특별시 마포구 토정로 148-14(상수동),02-325-3850,2022-01-01 ~ 2024-12-31 (3년),재가노인복지시설,해당,해당없음,해당없음,해당,해당없음,해당,37.5455773,126.9274038,서울특별시 마포구 토정로 148-14
36,서울특별시,서대문구,시립서대문노인종합복지관,서울특별시 서대문구 독립문로8길 57,02-6945-0623,2023-01-01 ~ 2025-12-31 (3년),노인여가복지시설,해당,해당없음,해당없음,해당없음,해당없음,해당없음,37.56525227,126.9594851,서울특별시 서대문구 독립문로8길 57
37,서울특별시,서대문구,효림재가노인지원센터,서울특별시 서대문구 경기대로9길 62,02-313-5124,2023-01-01 ~ 2024-12-31 (2년),재가노인복지시설,해당없음,해당없음,해당없음,해당,해당없음,해당없음,37.56399333,126.9615682,서울특별시 서대문구 경기대로9길 62
38,서울특별시,서초구,서초어르신행복e음센터,서울특별시 서초구 방배중앙로 159-6,02-6925-6990,2023-01-01 ~ 2025-12-31 (3년),재가노인복지시설,해당,해당없음,해당없음,해당,해당없음,해당없음,37.49446696,126.9860941,서울특별시 서초구 방배중앙로 159-6
39,서울특별시,서초구,방배노인종합복지관,서울특별시 서초구 방배천로 48,02-581-7992,2023-01-01 ~ 2025-12-31 (3년),노인여가복지시설,해당없음,해당없음,해당없음,해당,해당없음,해당없음,37.4784506,126.9826634,서울특별시 서초구 방배천로 48
40,서울특별시,성동구,성동노인종합복지관,"서울 성동구 마조로 77 (마장동, 성동노인종합복지관)",02-2298-5117,2024-01-01 ~ 2026-12-31 (3년),노인여가복지시설,해당없음,해당없음,해당없음,해당없음,해당없음,해당,37.56478466,127.0412399,서울 성동구 마조로 77
41,서울특별시,성동구,사회적협동조합 성동돌봄,"서울특별시 성동구 왕십리로 309 (행당동, 왕십리역이스타빌) 206호",02-2294-2114,2024-01-01 ~ 2026-12-31 (3년),협동조합,해당없음,해당없음,해당없음,해당없음,해당없음,해당없음,37.5613777,127.0345826,서울특별시 성동구 왕십리로 309  206호
42,서울특별시,성북구,정릉종합사회복지관,서울특별시 성북구 솔샘로5길 92(정릉동),02-909-0434,2024-01-01 ~ 2026-12-31 (3년),사회복지관,해당없음,해당없음,해당없음,해당,해당없음,해당,37.61069752,127.0029958,서울특별시 성북구 솔샘로5길 92
43,서울특별시,성북구,길음종합사회복지관,"서울특별시 성북구 삼양로2길 55 (길음동, 길음종합사회복지관)",02-985-0161,2021-01-01 ~ 2024-12-31 (4년),사회복지관,해당,해당없음,해당없음,해당없음,해당없음,해당,37.60672275,127.0267933,서울특별시 성북구 삼양로2길 55
44,서울특별시,성북구,생명의전화종합사회복지관,서울특별시 성북구 오패산로 21(하월곡동),02-916-9191,2024-01-01 ~ 2026-12-31 (3년),사회복지관,해당없음,해당없음,해당없음,해당없음,해당없음,해당없음,37.60776675,127.0363714,서울특별시 성북구 오패산로 21
45,서울특별시,성북구,서울시립성북노인종합복지관,서울특별시 성북구 종암로15길 10(종암동),02-929-7950,2024-01-01 ~ 2026-12-31 (3년),노인여가복지시설,해당없음,해당없음,해당없음,해당없음,해당없음,해당,37.59766571,127.0340058,서울특별시 성북구 종암로15길 10
46,서울특별시,송파구,송파노인종합복지관,서울특별시 송파구 백제고분로32길 41,02-2203-9400,2024-01-01 ~ 2025-12-31 (2년),노인여가복지시설,해당,해당없음,해당없음,해당없음,해당없음,해당,37.50084691,127.094979,서울특별시 송파구 백제고분로32길 41
47,서울특별시,송파구,송파실벗뜨락,"서울특별시 송파구 백제고분로42길 5 5,6층",02-413-9999,2024-01-01 ~ 2025-12-31 (2년),노인여가복지시설,해당없음,해당없음,해당없음,해당없음,해당없음,해당,37.60672275,127.1097799,서울특별시 송파구 백제고분로42길 5 5
48,서울특별시,송파구,송파노인복지센터,"서울특별시 송파구 백제고분로41길 19-24, 2층 (송파동)",02-2202-3677,2024-01-01 ~ 2025-12-31 (2년),재가노인복지시설,해당없음,해당없음,해당,해당,해당없음,해당없음,37.50711819,127.1064111,서울특별시 송파구 백제고분로41길 19-24
49,서울특별시,양천구,양천어르신종합복지관,서울특별시 양천구 목동로3길 106(신정동),02-2649-4848,2024-01-01 ~ 2028-12-31 (5년),노인여가복지시설,해당없음,해당없음,해당없음,해당,해당없음,해당없음,37.51044253,126.8586279,서울특별시 양천구 목동로3길 106
50,서울특별시,양천구,서서울어르신복지관,서울특별시 양천구 가로공원로60가길 16,02-2608-4042,2024-01-01 ~ 2028-12-31 (5년),노인여가복지시설,해당없음,해당없음,해당없음,해당없음,해당없음,해당없음,37.53439634,126.8262937,서울특별시 양천구 가로공원로60가길 16
51,서울특별시,양천구,목동어르신복지관,서울특별시 양천구 목동중앙로3길 21(목4동 765-1),02-2643-3352,2024-01-01 ~ 2028-12-31 (5년),노인여가복지시설,해당없음,해당없음,해당없음,해당,해당없음,해당,37.53646455,126.8692679,서울특별시 양천구 목동중앙로3길 21
52,서울특별시,영등포구,구립영등포노인복지센터,서울특별시 영등포구 선유서로34길 10,02-2679-0065,2024-01-01 ~ 2025-12-31 (2년),재가노인복지시설,해당없음,해당없음,해당없음,해당,해당없음,해당없음,37.5268014,126.8870381,서울특별시 영등포구 선유서로34길 10
53,서울특별시,영등포구,영등포종합사회복지관,서울특별시 영등포구 신길로13길 4,02-845-5331,2024-01-01 ~ 2025-12-31 (2년),사회복지관,해당없음,해당없음,해당없음,해당없음,해당없음,해당없음,37.49707578,126.9057001,서울특별시 영등포구 신길로13길 4
54,서울특별시,영등포구,신길종합사회복지관,서울특별시 영등포구 영등포로84길 24-5,02-831-2755,2024-01-01 ~ 2024-12-31 (1년),사회복지관,해당없음,해당없음,해당없음,해당없음,해당없음,해당없음,37.510908,126.9219987,서울특별시 영등포구 영등포로84길 24-5
55,서울특별시,영등포구,영등포노인종합복지관,서울특별시 영등포구 도림로 482 영등포노인종합복지관,02-2068-5326,2024-01-01 ~ 2024-12-31 (2년),노인여가복지시설,해당없음,해당없음,해당없음,해당없음,해당없음,해당없음,37.51685634,126.8905415,서울특별시 영등포구 도림로 482 영등포노인종합복지관
56,서울특별시,용산구,시립용산노인종합복지관,서울특별시 용산구 독서당로11길 16,02-794-6100,2022-01-01 ~ 2024-12-31 (3년),노인여가복지시설,해당없음,해당없음,해당없음,해당없음,해당없음,해당없음,37.53154656,127.006786,서울특별시 용산구 독서당로11길 16
57,서울특별시,용산구,갈월종합사회복지관,서울특별시 용산구 두텁바위로 25(갈월동),02-752-7887,2022-01-01 ~ 2024-12-31 (3년),사회복지관,해당없음,해당없음,해당없음,해당없음,해당없음,해당없음,37.54574635,126.9748285,서울특별시 용산구 두텁바위로 25
58,서울특별시,용산구,효창종합사회복지관,서울특별시 용산구 효창원로 146-12(효창동),02-716-0600,2022-01-01 ~ 2024-12-31 (3년),사회복지관,해당없음,해당없음,해당없음,해당없음,해당없음,해당없음,37.54114364,126.9631011,서울특별시 용산구 효창원로 146-12
59,서울특별시,용산구,청파노인복지관,서울특별시 용산구 청파로83길 26,02-701-6012,2023-01-01 ~ 2025-12-31 (3년),노인여가복지시설,해당없음,해당없음,해당없음,해당없음,해당없음,해당없음,37.55207465,126.9679945,서울특별시 용산구 청파로83길 26
60,서울특별시,용산구,용산재가노인지원센터,"서울 용산구 한강대로 69 (한강로2가, 용산푸르지오써밋) 102동 2611호",02-792-7882,2022-01-01 ~ 2024-12-31 (3년),재가노인복지시설,해당없음,해당없음,해당없음,해당,해당없음,해당없음,37.52704046,126.9648922,서울 용산구 한강대로 69  102동 2611호
61,서울특별시,은평구,은평어르신돌봄통합지원센터,"서울특별시 은평구 연서로13길 29-7, (구산동), 3층 은평어르신돌봄통합지원센터",02-389-9712,2023-01-01 ~ 2025-12-31 (3년),재가노인복지시설,해당없음,해당없음,해당없음,해당,해당없음,해당없음,37.61017852,126.9126892,서울특별시 은평구 연서로13길 29-7
62,서울특별시,은평구,서울시립은평노인종합복지관,서울특별시 은평구 연서로 415,02-385-1351,2023-01-01 ~ 2025-12-31 (3년),노인여가복지시설,해당,해당없음,해당없음,해당없음,해당없음,해당없음,37.63203995,126.9301667,서울특별시 은평구 연서로 415
63,서울특별시,종로구,구립종로노인종합복지관,서울특별시 종로구 율곡로19길 17-8,02-742-9500,2024-01-01 ~ 2024-12-31 (1년),노인여가복지시설,해당없음,해당없음,해당없음,해당없음,해당없음,해당없음,37.57729442,127.0072542,서울특별시 종로구 율곡로19길 17-8
64,서울특별시,중구,약수노인종합복지관,서울특별시 중구 다산로6길 11,02-2234-3515,2024-01-01 ~ 2026-12-31 (3년),노인여가복지시설,해당,해당없음,해당없음,해당없음,해당없음,해당없음,37.5521443,127.0095219,서울특별시 중구 다산로6길 11
65,서울특별시,중구,유락종합사회복지관,"서울특별시 중구 퇴계로 460, 유락종합사회복지관",02-2235-4000,2024-01-01 ~ 2026-12-31 (3년),사회복지관,해당없음,해당없음,해당없음,해당없음,해당없음,해당,37.5651439,127.0227988,서울특별시 중구 퇴계로 460
66,서울특별시,중구,중림종합사회복지관,서울특별시 중구 서소문로6길 16,02-362-3348,2024-01-01 ~ 2026-12-31 (3년),사회복지관,해당없음,해당없음,해당없음,해당,해당없음,해당,37.55989525,126.9658111,서울특별시 중구 서소문로6길 16
67,서울특별시,중랑구,신내노인종합복지관,서울특별시 중랑구 신내로15길 175,02-3421-4800,2023-01-01 ~ 2024-12-31 (2년),노인여가복지시설,해당,해당없음,해당없음,해당없음,해당없음,해당없음,37.61341037,127.0911909,서울특별시 중랑구 신내로15길 175
68,서울특별시,중랑구,중랑노인종합복지관,서울특별시 중랑구 겸재로9길 45 2층 사무실,02-493-9966,2023-01-01 ~ 2024-12-31 (2년),노인여가복지시설,해당없음,해당없음,해당없음,해당없음,해당없음,해당없음,37.58843496,127.0778419,서울특별시 중랑구 겸재로9길 45 2층 사무실
69,서울특별시,중랑구,면목종합사회복지관,서울특별시 중랑구 용마산로 228,02-436-0500,2023-01-01 ~ 2024-12-31 (2년),사회복지관,해당없음,해당없음,해당없음,해당없음,해당없음,해당없음,37.57337425,127.0872293,서울특별시 중랑구 용마산로 228
70,서울특별시,중랑구,여명재가노인지원서비스센터,서울특별시 중랑구 동일로 160길 49 (지층),02-976-2808,2023-01-01 ~ 2024-12-31 (2년),재가노인복지시설,해당없음,해당없음,해당없음,해당,해당없음,해당없음,37.61124294,127.0804793,서울특별시 중랑구 동일로 160길 49
71,부산광역시,강서구,강서노인종합복지관,부산광역시 강서구 체육공원로 39 강서노인종합복지관,051-972-4851,2024-01-01 ~ 2026-12-31 (3년),노인여가복지시설,해당,해당,해당없음,해당없음,해당없음,해당없음,35.20733025,128.9734665,부산광역시 강서구 체육공원로 39 강서노인종합복지관
72,부산광역시,강서구,명지노인종합복지관,"부산 강서구 명지국제13로 33 (명지동, 명지노인종합복지관)",051-712-7000,2024-01-01 ~ 2026-12-31 (3년),노인여가복지시설,해당,해당없음,해당없음,해당,해당없음,해당없음,35.1105637,128.923047,부산 강서구 명지국제13로 33
73,부산광역시,금정구,금정구노인복지관,부산광역시 금정구 청룡예전로 110(청룡동),051-792-7200,2023-01-01 ~ 2024-12-31 (2년),노인여가복지시설,해당,해당,해당없음,해당없음,해당없음,해당없음,35.27917165,129.0847849,부산광역시 금정구 청룡예전로 110
74,부산광역시,금정구,남광종합사회복지관,부산광역시 금정구 중앙대로 2349번길 3,051-508-1998,2023-01-01 ~ 2024-12-31 (2년),사회복지관,해당없음,해당없음,해당,해당,해당없음,해당,35.29339563,129.1000091,부산광역시 금정구 중앙대로 2349번길 3
75,부산광역시,금정구,사회적협동조합 금정구지역자활센터,"부산 금정구 중앙대로1719번길 23 (부곡동, 우남빌딩) 302호",051-508-2163,2023-01-01 ~ 2024-12-31 (2년),협동조합,해당,해당없음,해당없음,해당없음,해당없음,해당없음,35.23764515,129.0909033,부산 금정구 중앙대로1719번길 23  302호
76,부산광역시,남구,남구노인복지관,부산광역시 남구 못골로 97-10(대연동),051-628-1291,2023-01-01 ~ 2024-12-31 (2년),노인여가복지시설,해당,해당없음,해당없음,해당없음,해당없음,해당없음,35.13618147,129.0932543,부산광역시 남구 못골로 97-10
77,부산광역시,남구,용호종합사회복지관 부설 용호재가노인지원서비스센터,부산광역시 남구 이기대공원로 7(용호3동),051-628-6737,2022-01-01 ~ 2024-12-31 (2년),재가노인복지시설,해당없음,해당없음,해당없음,해당,해당없음,해당없음,35.1245471,129.1135265,부산광역시 남구 이기대공원로 7
78,부산광역시,남구,청전재가노인지원서비스센터,부산광역시 남구 유엔로 124 2층,051-622-1226,2023-01-01 ~ 2024-12-31 (2년),재가노인복지시설,해당없음,해당없음,해당없음,해당,해당없음,해당없음,35.1252966,129.0794004,부산광역시 남구 유엔로 124 2층
79,부산광역시,남구,남구종합사회복지관,"부산 남구 동제당로 258 (우암동, 남구종합복지관)",051-647-3655,2023-01-01 ~ 2024-12-31 (2년),사회복지관,해당없음,해당,해당없음,해당없음,해당없음,해당없음,35.12717198,129.0749074,부산 남구 동제당로 258
80,부산광역시,동구,동구노인복지관,부산광역시 동구 홍곡중로 5번길 24(수정동),051-714-2945,2024-01-01 ~ 2028-12-31 (5년),노인여가복지시설,해당,해당없음,해당,해당,해당없음,해당,35.12581096,129.0404176,부산광역시 동구 홍곡중로 5번길 24
81,부산광역시,동구,부산동구자성대노인복지관,"부산광역시 동구 자성로 140번길 32, 2층 노인맞춤돌봄서비스 사무실",051-632-7597,2024-01-01 ~ 2028-12-31 (5년),노인여가복지시설,해당,해당,해당없음,해당없음,해당없음,해당없음,35.13564216,129.0648461,부산광역시 동구 자성로 140번길 32
82,부산광역시,동래구,동래구노인복지관,부산광역시 동래구 명륜로 207번길 18,051-710-6252,2023-01-01 ~ 2024-12-31 (2년),노인여가복지시설,해당,해당,해당없음,해당없음,해당없음,해당,35.21238217,129.0819723,부산광역시 동래구 명륜로 207번길 18
83,부산광역시,동래구,사직노인복지센터,부산광역시 동래구 사직북로63번길 20-7 본관 3층,051-506-3416,2023-01-01 ~ 2024-12-31 (2년),재가노인복지시설,해당없음,해당없음,해당없음,해당,해당없음,해당없음,35.1990151,129.0573393,부산광역시 동래구 사직북로63번길 20-7 본관 3층
84,부산광역시,동래구,효림원재가노인지원서비스센터,"부산광역시 동래구 반송로273번길 7, 303호",051-523-1322,2023-01-01 ~ 2024-12-31 (2년),재가노인복지시설,해당없음,해당없음,해당없음,해당,해당없음,해당없음,35.20440505,129.1009151,부산광역시 동래구 반송로273번길 7
85,부산광역시,부산진구,부산진구노인복지관,부산광역시 부산진구 전포대로300번길 6,051-808-8090,2023-01-01 ~ 2024-12-31 (2년),노인여가복지시설,해당,해당,해당없음,해당없음,해당없음,해당없음,35.16511671,129.066515,부산광역시 부산진구 전포대로300번길 6
86,부산광역시,부산진구,다사랑복합문화예술회관,부산광역시 부산진구 대학로 60,051-898-1746,2023-01-01 ~ 2024-12-31 (2년),노인여가복지시설,해당,해당없음,해당없음,해당없음,해당없음,해당없음,35.15439571,129.0372472,부산광역시 부산진구 대학로 60
87,부산광역시,북구,장선종합복지공동체(실버벨노인종합복지관),부산광역시 북구 시랑로114번길 45(구포동),051-337-5959,2024-01-01 ~ 2024-12-31 (1년),노인여가복지시설,해당없음,해당,해당없음,해당없음,해당없음,해당,35.19426533,129.0086898,부산광역시 북구 시랑로114번길 45
88,부산광역시,북구,화명종합사회복지관,부산광역시 북구 금곡대로199번길 21(화명동),051-338-2233,2024-01-01 ~ 2024-12-31 (1년),사회복지관,해당,해당없음,해당없음,해당없음,해당없음,해당없음,35.22680891,129.0097811,부산광역시 북구 금곡대로199번길 21
89,부산광역시,북구,청록재가노인지원서비스센터,"부산광역시 북구 만덕대로155번길 86-9 (덕천동, 덕천2지구도개공아파트)",051-337-0161,2024-01-01 ~ 2024-12-31 (1년),재가노인복지시설,해당없음,해당없음,해당없음,해당,해당없음,해당없음,35.21803559,129.0211096,부산광역시 북구 만덕대로155번길 86-9
90,부산광역시,북구,부산삼동재가노인지원서비스센터,부산 북구 금곡대로324번길 11 (화명동),051-343-5685,2021-01-01 ~ 2024-12-31 (4년),재가노인복지시설,해당없음,해당없음,해당없음,해당,해당없음,해당없음,35.23727113,129.0147177,부산 북구 금곡대로324번길 11
91,부산광역시,사상구,모라종합사회복지관,부산광역시 사상구 모라로 110번길 129,051-304-9876,2022-01-01 ~ 2024-12-31 (3년),사회복지관,해당,해당없음,해당없음,해당없음,해당없음,해당,35.18494473,128.9978741,부산광역시 사상구 모라로 110번길 129
92,부산광역시,사상구,사상구종합사회복지관,부산광역시 사상구 백양대로 527 2층 맞춤돌봄서비스,051-710-2232,2022-01-01 ~ 2024-12-31 (3년),사회복지관,해당없음,해당없음,해당없음,해당,해당없음,해당없음,35.15543028,128.9947834,부산광역시 사상구 백양대로 527 2층 맞춤돌봄서비스
93,부산광역시,사상구,사상구노인복지관,"부산광역시 사상구 가야대로196번길 51, 5층",051-325-7555,2022-01-01 ~ 2024-12-31 (3년),노인여가복지시설,해당없음,해당,해당없음,해당없음,해당없음,해당없음,35.14738137,128.995023,부산광역시 사상구 가야대로196번길 51
94,부산광역시,사하구,사하중앙노인복지센터,부산광역시 사하구 승학로 123,051-206-9106,2024-01-01 ~ 2026-12-31 (3년),재가노인복지시설,해당없음,해당없음,해당,해당,해당없음,해당없음,35.10226065,128.9940353,부산광역시 사하구 승학로 123
95,부산광역시,사하구,신장림사랑채노인복지관,부산광역시 사하구 다대로300번길 9,051-266-8515,2024-01-01 ~ 2026-12-31 (3년),노인여가복지시설,해당,해당없음,해당없음,해당,해당없음,해당없음,35.07488374,128.9751131,부산광역시 사하구 다대로300번길 9
96,부산광역시,사하구,몰운대종합사회복지관,부산광역시 사하구 다대낙조2길 17,051-264-9033,2024-01-01 ~ 2024-12-31 (3년),사회복지관,해당없음,해당없음,해당없음,해당없음,해당없음,해당없음,35.05116386,128.96572,부산광역시 사하구 다대낙조2길 17
97,부산광역시,사하구,구평종합사회복지관,부산광역시 사하구 을숙도대로 744,051-263-3045,2024-01-01 ~ 2026-12-31 (3년),사회복지관,해당없음,해당,해당없음,해당없음,해당없음,해당없음,35.08547834,128.9625328,부산광역시 사하구 을숙도대로 744
98,부산광역시,사하구,인창재가노인지원서비스센터,부산 사하구 낙동대로 128 (괴정동) 4층,051-204-3472,2024-01-01 ~ 2026-12-31 (3년),재가노인복지시설,해당없음,해당없음,해당없음,해당,해당없음,해당없음,35.10369138,129.0018674,부산 사하구 낙동대로 128  4층
99,부산광역시,서구,서구종합사회복지관,"부산광역시 서구 망양로193번길 104, 서구종합사회복지관",051-253-1922,2023-01-01 ~ 2025-12-31 (3년),사회복지관,해당,해당,해당없음,해당없음,해당없음,해당없음,35.11117628,129.0263539,부산광역시 서구 망양로193번길 104
100,부산광역시,서구,서구노인복지관,"부산광역시 서구 장군산로46번길 21 (암남동, 서구노인복지관)",051-244-3541,2023-01-01 ~ 2025-12-31 (3년),노인여가복지시설,해당없음,해당없음,해당없음,해당없음,해당없음,해당,35.07312815,129.014348,부산광역시 서구 장군산로46번길 21
101,부산광역시,수영구,수영구노인복지관,"부산광역시 수영구 황령대로489번길 83, 수영구노인복지관",051-759-6070,2023-01-01 ~ 2024-12-31 (2년),노인여가복지시설,해당,해당,해당없음,해당,해당없음,해당없음,35.14004665,129.1111721,부산광역시 수영구 황령대로489번길 83
102,부산광역시,수영구,수영재가노인지원서비스센터,"부산광역시 수영구 연수로 375, 4층",051-912-7275,2020-01-01 ~ 2024-12-31 (5년),재가노인복지시설,해당없음,해당없음,해당없음,해당,해당없음,해당없음,35.17025432,129.1112829,부산광역시 수영구 연수로 375
103,부산광역시,수영구,광안노인복지관,부산광역시 수영구 장대골로 75-8,051-715-6099,2023-01-01 ~ 2024-12-31 (2년),노인여가복지시설,해당없음,해당없음,해당없음,해당없음,해당없음,해당없음,35.15919915,129.1078583,부산광역시 수영구 장대골로 75-8
104,부산광역시,연제구,연제구거제종합사회복지관,부산광역시 연제구 아시아드대로 46번길 45(1층),051-507-8151,2020-01-01 ~ 2024-12-31 (5년),사회복지관,해당없음,해당없음,해당없음,해당없음,해당없음,해당없음,35.1884749,129.0707003,부산광역시 연제구 아시아드대로 46번길 45
105,부산광역시,연제구,연제구노인복지관,부산광역시 연제구 고분로 188,051-863-9988,2023-01-01 ~ 2025-12-31 (3년),노인여가복지시설,해당,해당없음,해당없음,해당없음,해당없음,해당없음,35.18564211,129.0991663,부산광역시 연제구 고분로 188
106,부산광역시,연제구,부산돌봄의료복지사회적협동조합,부산 연제구 거제천로 89 (거제동) 이안빌딩 6층,051-852-0525,2023-01-01 ~ 2025-12-31 (3년),협동조합,해당없음,해당없음,해당없음,해당없음,해당없음,해당없음,35.18227599,129.0730612,부산 연제구 거제천로 89  이안빌딩 6층
107,부산광역시,영도구,영도구노인복지관,부산광역시 영도구 절영로29번길 14,051-417-6344,2024-01-01 ~ 2026-12-31 (3년),노인여가복지시설,해당,해당,해당없음,해당없음,해당없음,해당없음,35.09111532,129.0411392,부산광역시 영도구 절영로29번길 14
108,부산광역시,영도구,와치종합사회복지관,부산광역시 영도구 함지로 79번길 76 2층 사무실,051-403-4200,2024-01-02 ~ 2026-12-31 (3년),사회복지관,해당,해당없음,해당,해당,해당없음,해당없음,35.07599781,129.0655237,부산광역시 영도구 함지로 79번길 76 2층 사무실
109,부산광역시,중구,중구노인복지관,부산광역시 중구 책방골목길3-1,051-241-2591,2023-01-01 ~ 2025-12-31 (3년),노인여가복지시설,해당,해당,해당,해당없음,해당없음,해당,35.10414121,129.0261791,부산광역시 중구 책방골목길3-1
110,부산광역시,해운대구,어진샘노인종합복지관,"부산광역시 해운대구 재반로12번길 16, 어진샘노인종합복지관",051-784-8008,2024-01-01 ~ 2025-12-31 (2년),노인여가복지시설,해당,해당,해당없음,해당없음,해당없음,해당,35.17966921,129.1275323,부산광역시 해운대구 재반로12번길 16
111,부산광역시,해운대구,장산노인복지관,부산광역시 해운대구 좌동로 126,051-704-9141,2024-01-01 ~ 2025-12-31 (2년),노인여가복지시설,해당없음,해당없음,해당없음,해당없음,해당없음,해당없음,35.17380635,129.1787677,부산광역시 해운대구 좌동로 126
112,부산광역시,해운대구,운봉종합사회복지관,부산광역시 해운대구 신반송로 200,051-543-2431,2024-01-01 ~ 2025-12-31 (2년),사회복지관,해당없음,해당없음,해당없음,해당없음,해당없음,해당,35.23072887,129.1617355,부산광역시 해운대구 신반송로 200
113,부산광역시,해운대구,대성재가복지센터,"부산 해운대구 반여로155번길 35-55 (반여동) , 2층",051-524-0063,2024-01-01 ~ 2025-12-31 (2년),재가노인복지시설,해당없음,해당,해당,해당없음,해당없음,해당없음,35.20537367,129.1237389,부산 해운대구 반여로155번길 35-55
114,부산광역시,기장군,기장군노인복지관(본관),부산광역시 기장군 기장읍 대청로 22번길 61,051-792-4760,2020-01-01 ~ 2025-01-01 (2년),노인여가복지시설,해당없음,해당없음,해당없음,해당없음,해당없음,해당없음,35.23509591,129.2126008,부산광역시 기장군 기장읍 대청로 22번길 61
115,부산광역시,기장군,기장군노인복지관(분관),부산광역시 기장군 일광읍 이천8길 13,051-792-4870,2024-01-01 ~ 2024-12-31 (1년),노인여가복지시설,해당없음,해당,해당없음,해당없음,해당없음,해당없음,35.27637446,129.2328574,부산광역시 기장군 일광읍 이천8길 13
116,대구광역시,남구,햇빛재가노인돌봄센터,대구광역시 남구 봉덕로 41 동영빌딩 8층,053-474-9748,2023-01-01 ~ 2025-12-31 (3년),재가노인복지시설,해당,해당없음,해당,해당,해당없음,해당,35.84525903,128.595233,대구광역시 남구 봉덕로 41 동영빌딩 8층
117,대구광역시,남구,참좋은재가노인돌봄센터,대구광역시 남구 중앙대로 132 3층(봉덕동),053-474-1253,2023-01-01 ~ 2025-12-31 (3년),재가노인복지시설,해당없음,해당없음,해당없음,해당,해당없음,해당,35.84492719,128.5908456,대구광역시 남구 중앙대로 132 3층
118,대구광역시,남구,대덕노인종합복지관,대구광역시 남구 큰골길 137,053-621-9524,2023-01-01 ~ 2025-12-31 (3년),노인여가복지시설,해당없음,해당,해당없음,해당없음,해당없음,해당없음,35.8362324,128.5827773,대구광역시 남구 큰골길 137
119,대구광역시,달서구,달서구노인종합복지관,대구광역시 달서구 학산로 140,053-644-8312,2023-01-01 ~ 2025-12-31 (3년),노인여가복지시설,해당,해당없음,해당없음,해당없음,해당없음,해당,35.83110543,128.5353561,대구광역시 달서구 학산로 140
120,대구광역시,달서구,성서재가노인돌봄센터,대구광역시 달서구 장기로 253-1 프라임 3층,053-716-6126,2023-01-01 ~ 2025-12-31 (3년),재가노인복지시설,해당없음,해당없음,해당없음,해당,해당없음,해당없음,35.84336597,128.5325267,대구광역시 달서구 장기로 253-1 프라임 3층
121,대구광역시,달서구,월성재가노인돌봄센터,대구광역시 달서구 월성로20 건도파라다이스빌딩 401호,053-636-7300,2023-01-01 ~ 2025-12-31 (3년),재가노인복지시설,해당없음,해당없음,해당,해당,해당없음,해당,35.83158898,128.5331529,대구광역시 달서구 월성로20 건도파라다이스빌딩 401호
122,대구광역시,달서구,굿실버재가노인돌봄센터,대구광역시 달서구 상인로 84 4층,053-652-0272,2023-01-01 ~ 2025-12-31 (3년),재가노인복지시설,해당없음,해당없음,해당없음,해당,해당없음,해당,35.81473225,128.5477438,대구광역시 달서구 상인로 84 4층
123,대구광역시,달서구,대구YWCA재가노인돌봄센터,대구광역시 달서구 성서로 377 5층,053-587-1968,2023-01-01 ~ 2025-12-31 (3년),재가노인복지시설,해당없음,해당없음,해당,해당,해당없음,해당없음,35.85121644,128.506819,대구광역시 달서구 성서로 377 5층
124,대구광역시,달서구,대덕재가노인돌봄센터,대구광역시 달서구 한실로 89 4층,053-625-9523,2023-01-01 ~ 2025-12-31 (3년),재가노인복지시설,해당없음,해당없음,해당없음,해당,해당없음,해당없음,35.80704997,128.5364286,대구광역시 달서구 한실로 89 4층
125,대구광역시,달서구,대구재가노인돌봄센터,"대구광역시 달서구 월배로 385, 2층",053-295-6070,2023-01-01 ~ 2025-12-31 (3년),재가노인복지시설,해당없음,해당,해당없음,해당,해당없음,해당없음,35.82922163,128.5498302,대구광역시 달서구 월배로 385
126,대구광역시,동구,감천재가노인돌봄센터,대구광역시 동구 갓바위로 75,053-986-7708,2023-01-01 ~ 2025-12-31 (3년),재가노인복지시설,해당없음,해당없음,해당없음,해당,해당없음,해당없음,35.96419169,128.7176097,대구광역시 동구 갓바위로 75
127,대구광역시,동구,진명재가노인돌봄센터,대구광역시 동구 아양로 239 (신암동) 진명시니어카운티 5층,053-954-1006,2023-01-01 ~ 2025-12-31 (3년),재가노인복지시설,해당,해당,해당,해당,해당없음,해당,35.88703603,128.6388778,대구광역시 동구 아양로 239  진명시니어카운티 5층
128,대구광역시,동구,효청원재가노인돌봄센터,대구 동구 효목로 49 (효목동) 3층,053-751-1152,2023-01-01 ~ 2025-12-31 (3년),재가노인복지시설,해당없음,해당없음,해당,해당,해당없음,해당,35.87772468,128.6398882,대구 동구 효목로 49  3층
129,대구광역시,동구,신안재가노인돌봄센터,"대구광역시 동구 부동길30, 3층",053-290-9988,2023-01-01 ~ 2025-12-31 (3년),재가노인복지시설,해당없음,해당없음,해당없음,해당,해당없음,해당,35.88942164,128.6819308,대구광역시 동구 부동길30
130,대구광역시,동구,동구재가노인돌봄센터,대구광역시 동구 경안로 109길 22-7(동호동),053-964-3111,2023-01-01 ~ 2025-12-31 (3년),재가노인복지시설,해당없음,해당없음,해당,해당,해당없음,해당,35.87163003,128.7117722,대구광역시 동구 경안로 109길 22-7
131,대구광역시,동구,성덕재가노인돌봄센터,대구광역시 동구 반야월로 100. 3층 성덕재가노인돌봄센터,053-964-9647,2023-01-01 ~ 2025-12-31 (3년),재가노인복지시설,해당없음,해당없음,해당,해당,해당없음,해당,35.87315973,128.699263,대구광역시 동구 반야월로 100. 3층 성덕재가노인돌봄센터
132,대구광역시,북구,가정북구재가노인돌봄센터,"대구광역시 북구 오봉로6길 12, 2층",053-959-8310,2023-01-01 ~ 2025-12-31 (3년),재가노인복지시설,해당없음,해당없음,해당,해당,해당없음,해당없음,35.88979896,128.5779975,대구광역시 북구 오봉로6길 12
133,대구광역시,북구,가정종합사회복지관,대구광역시 북구 대동로 10길 9,053-958-8310,2023-01-01 ~ 2025-12-31 (3년),사회복지관,해당,해당,해당없음,해당없음,해당없음,해당없음,35.8971862,128.6100843,대구광역시 북구 대동로 10길 9
134,대구광역시,북구,효성재가노인돌봄센터,"대구광역시 북구 구암로60길 12-1, 1층",053-324-0770,2023-01-01 ~ 2025-12-31 (3년),재가노인복지시설,해당없음,해당없음,해당없음,해당,해당없음,해당없음,35.93669312,128.5686524,대구광역시 북구 구암로60길 12-1
135,대구광역시,북구,가나안재가노인돌봄센터,"대구광역시 북구 칠곡중앙대로 188, 2층",053-322-2660,2023-01-01 ~ 2025-12-31 (3년),재가노인복지시설,해당없음,해당없음,해당,해당,해당없음,해당없음,35.91269564,128.5488148,대구광역시 북구 칠곡중앙대로 188
136,대구광역시,북구,청인재가노인돌봄센터,대구광역시 북구 칠곡중앙대로 459 4층,053-762-8500,2023-01-01 ~ 2025-12-31 (3년),재가노인복지시설,해당,해당없음,해당없음,해당,해당없음,해당없음,35.9367891,128.5487735,대구광역시 북구 칠곡중앙대로 459 4층
137,대구광역시,서구,노인의전화재가노인돌봄센터,"대구광역시 서구 국채보상로 356, 3층",053-424-6070,2023-01-01 ~ 2025-12-31 (3년),재가노인복지시설,해당없음,해당없음,해당없음,해당,해당없음,해당,35.87197597,128.5699786,대구광역시 서구 국채보상로 356
138,대구광역시,서구,샬롬재가노인돌봄센터,대구광역시 서구 가르뱅이로 16길 9-1(상리동40-5) 2층,053-523-5830,2023-01-01 ~ 2025-12-31 (3년),재가노인복지시설,해당,해당없음,해당,해당,해당없음,해당,35.88394011,128.5290254,대구광역시 서구 가르뱅이로 16길 9-1 2층
139,대구광역시,서구,정다운재가노인돌봄센터,대구광역시 서구 고성로93 (2층),053-359-2227,2023-01-01 ~ 2025-12-31 (3년),재가노인복지시설,해당없음,해당없음,해당없음,해당,해당없음,해당,35.88306664,128.5765404,대구광역시 서구 고성로93
140,대구광역시,서구,보은재가노인돌봄센터,대구광역시 서구 국채보상로81길 40,053-521-0740,2023-01-01 ~ 2025-12-31 (3년),재가노인복지시설,해당없음,해당없음,해당없음,해당,해당없음,해당없음,35.87540728,128.5748653,대구광역시 서구 국채보상로81길 40
141,대구광역시,수성구,달구벌재가노인돌봄센터,대구 수성구 고산로4안길 59 (신매동) 드림빌 203호,053-793-6938,2023-01-01 ~ 2025-12-31 (3년),재가노인복지시설,해당없음,해당없음,해당없음,해당,해당없음,해당없음,35.83083037,128.7046778,대구 수성구 고산로4안길 59  드림빌 203호
142,대구광역시,수성구,대구시지 재가노인돌봄센터,"대구광역시 수성구 달구벌대로647길 7, 203호 (신매동, 경일건설빌딩)",053-794-8093,2023-01-01 ~ 2025-12-31 (3년),재가노인복지시설,해당,해당없음,해당,해당,해당없음,해당없음,35.83975562,128.7103282,대구광역시 수성구 달구벌대로647길 7
143,대구광역시,수성구,마야재가노인돌봄센터,대구광역시 수성구 공경로 55 B동 지하1층,053-719-4593,2023-01-01 ~ 2025-12-31 (3년),재가노인복지시설,해당,해당없음,해당없음,해당,해당없음,해당없음,35.87242943,128.6431579,대구광역시 수성구 공경로 55 B동 지하1층
144,대구광역시,수성구,홀트대구종합사회복지관,대구광역시 수성구 달구벌대로 488길 13 2층,053-746-7501,2023-01-01 ~ 2025-12-31 (3년),사회복지관,해당없음,해당,해당없음,해당없음,해당없음,해당없음,35.85755936,128.6296611,대구광역시 수성구 달구벌대로 488길 13 2층
145,대구광역시,수성구,예원재가노인돌봄센터,"대구광역시 수성구 용학로 2,4층",053-762-7520,2024-01-01 ~ 2026-12-31 (3년),재가노인복지시설,해당없음,해당없음,해당없음,해당,해당없음,해당없음,35.82515567,128.6103751,대구광역시 수성구 용학로 2
146,대구광역시,수성구,화성재가노인돌봄센터,대구광역시 수성구 수성로 64 202호,053-768-1183,2023-01-01 ~ 2025-12-31 (3년),재가노인복지시설,해당없음,해당없음,해당없음,해당,해당없음,해당없음,35.83109685,128.6113152,대구광역시 수성구 수성로 64 202호
147,대구광역시,수성구,선한이웃재가노인돌봄센터,대구광역시 수성구 들안로365 창일빌딩4층,053-793-3467,2023-01-01 ~ 2025-12-31 (3년),재가노인복지시설,해당없음,해당없음,해당없음,해당,해당없음,해당,35.86272267,128.6176043,대구광역시 수성구 들안로365 창일빌딩4층
148,대구광역시,중구,남산종합사회복지관,대구광역시 중구 남산로7길 80,053-254-2562,2023-01-01 ~ 2025-12-31 (3년),사회복지관,해당,해당,해당없음,해당없음,해당없음,해당,35.86015099,128.5790852,대구광역시 중구 남산로7길 80
149,대구광역시,중구,어르신마을재가노인돌봄센터,대구 중구 서성로 96 (수창동) 5층,053-421-0881,2023-01-01 ~ 2025-12-31 (3년),재가노인복지시설,해당없음,해당없음,해당,해당,해당없음,해당없음,35.87522634,128.5881119,대구 중구 서성로 96  5층
150,대구광역시,중구,삼덕재가노인돌봄센터,"대구광역시 중구 공평로 22, 삼덕교회60주년기념관 8층",053-423-3279,2023-01-01 ~ 2025-12-31 (3년),재가노인복지시설,해당없음,해당없음,해당,해당,해당없음,해당,35.86605344,128.600304,대구광역시 중구 공평로 22
151,대구광역시,달성군,효경재가노인돌봄센터,대구 달성군 구지면 창한로 567 (효경(구지)재가노인지원센터),053-617-0112,2023-01-01 ~ 2025-12-31 (3년),재가노인복지시설,해당,해당,해당없음,해당,해당없음,해당없음,35.64831759,128.4546211,대구 달성군 구지면 창한로 567
152,대구광역시,달성군,수경재가노인돌봄센터,"대구광역시 달성군 화원읍 비슬로 2490,4층",053-634-2007,2023-01-01 ~ 2025-12-31 (3년),재가노인복지시설,해당없음,해당없음,해당없음,해당,해당없음,해당없음,35.79934063,128.4907906,대구광역시 달성군 화원읍 비슬로 2490
153,대구광역시,달성군,에덴재가노인돌봄센터,"대구광역시 달성군 옥포읍 비슬로 1904,2층",053-615-1133,2023-01-01 ~ 2025-12-31 (3년),재가노인복지시설,해당없음,해당없음,해당없음,해당,해당없음,해당없음,35.77973841,128.4322833,대구광역시 달성군 옥포읍 비슬로 1904
154,대구광역시,달성군,늘푸른재가노인돌봄센터,대구 달성군 다사읍 대실역북로1길 5-1 4층,053-637-9988,2023-01-01 ~ 2025-12-31 (3년),재가노인복지시설,해당없음,해당없음,해당없음,해당,해당없음,해당없음,35.85830617,128.4661643,대구 달성군 다사읍 대실역북로1길 5-1 4층
155,대구광역시,군위군,군위재가노인돌봄센터,대구광역시 군위군 군위읍 군위금성로 140,054-382-1300,2024-01-01 ~ 2025-12-31 (2년),재가노인복지시설,해당없음,해당,해당없음,해당,해당없음,해당없음,36.23229793,128.6022988,대구광역시 군위군 군위읍 군위금성로 140
156,인천광역시,계양구,구립계산노인복지센터,인천광역시 계양구 경명대로980(계산동)5층,032-556-5627,2023-01-01 ~ 2025-12-31 (3년),재가노인복지시설,해당없음,해당없음,해당,해당,해당없음,해당없음,37.5436027,126.7154153,인천광역시 계양구 경명대로9805층
157,인천광역시,계양구,다사랑재가노인지원서비스센터,"인천 계양구 경명대로 1077 (계산동, 로얄프라자) 5층",032-554-8274,2023-01-01 ~ 2025-12-31 (3년),재가노인복지시설,해당,해당없음,해당없음,해당,해당없음,해당,37.54364499,126.7266653,인천 계양구 경명대로 1077  5층
158,인천광역시,계양구,계양푸른빛재가노인지원서비스센터,"인천광역시 계양구 경명대로 1138, 동남 B/D 302호",032-552-3080,2023-01-01 ~ 2025-12-31 (3년),재가노인복지시설,해당없음,해당없음,해당없음,해당,해당없음,해당,37.54279861,126.7332951,인천광역시 계양구 경명대로 1138
159,인천광역시,미추홀구,대한어머니회 재가노인지원서비스센터,"인천광역시 미추홀구 독배로 443, 280호(숭의동, 삼화복합빌딩)",032-868-9207,2023-01-01 ~ 2025-12-31 (3년),재가노인복지시설,해당,해당없음,해당,해당,해당없음,해당,37.4588572,126.6481956,인천광역시 미추홀구 독배로 443
160,인천광역시,미추홀구,인천재가노인지원서비스센터,"인천광역시 미추홀구 매소홀로386번길 32, 3층",032-872-9088,2023-01-01 ~ 2025-12-31 (3년),재가노인복지시설,해당없음,해당없음,해당,해당,해당없음,해당없음,37.43863229,126.6645458,인천광역시 미추홀구 매소홀로386번길 32
161,인천광역시,미추홀구,실업극복인천본부실버센터,인천 미추홀구 경인로 334-17 (주안동) 2층,032-872-3078,2023-01-01 ~ 2025-12-31 (3년),법인,해당없음,해당없음,해당없음,해당없음,해당없음,해당,37.45808058,126.6772234,인천 미추홀구 경인로 334-17  2층
162,인천광역시,미추홀구,미추홀재가노인지원서비스센터,"인천 미추홀구 염창로 97 (주안동, 미추홀종합사회복지관)1층 미추홀재가노인지원서비스센터",032-876-8182,2023-01-01 ~ 2025-12-31 (3년),재가노인복지시설,해당없음,해당없음,해당없음,해당,해당없음,해당없음,37.46559847,126.6849558,인천 미추홀구 염창로 97 1층 미추홀재가노인지원서비스센터
163,인천광역시,남동구,남동구노인복지관,인천 남동구 소래로 610 (수산동),032-435-1950,2022-01-01 ~ 2024-12-31 (3년),노인여가복지시설,해당없음,해당없음,해당없음,해당없음,해당없음,해당없음,37.4324921,126.7321488,인천 남동구 소래로 610
164,인천광역시,남동구,만수종합사회복지관,인천광역시 남동구 담방로 105 2층,032-463-8161,2020-01-01 ~ 2024-12-31 (3년),사회복지관,해당없음,해당없음,해당없음,해당없음,해당없음,해당없음,37.44691316,126.739259,인천광역시 남동구 담방로 105 2층
165,인천광역시,남동구,논현종합사회복지관,인천광역시 남동구 호구포로 292,032-446-9339,2022-01-01 ~ 2024-12-31 (3년),사회복지관,해당없음,해당없음,해당없음,해당없음,해당없음,해당없음,37.40819065,126.7131974,인천광역시 남동구 호구포로 292
166,인천광역시,동구,성언의집재가노인지원서비스센터,인천광역시 동구 화도진로79번길10,032-772-1664,2023-01-01 ~ 2023-12-31 (1년),재가노인복지시설,해당없음,해당없음,해당,해당,해당없음,해당없음,37.47892919,126.6302263,인천광역시 동구 화도진로79번길10
167,인천광역시,동구,동구노인복지관,인천광역시 동구 샛골로177,032-761-3677,2023-05-01 ~ 2024-03-31 (2년),노인여가복지시설,해당없음,해당,해당없음,해당,해당없음,해당,37.47836594,126.6444826,인천광역시 동구 샛골로177
168,인천광역시,부평구,인천부평남부지역자활센터,"인천광역시 부평구 후정동로6,2층 (삼산동)부평구자활타운",032-291-3500,2024-01-01 ~ 2025-12-31 (2년),지역자활센터,해당없음,해당없음,해당없음,해당없음,해당없음,해당없음,37.51779678,126.7380809,인천광역시 부평구 후정동로6
169,인천광역시,부평구,부평구노인복지관,인천광역시 부평구 굴포로114(삼산동) 부평구노인복지관,032-526-4447,2023-01-01 ~ 2023-12-31 (1년),노인여가복지시설,해당,해당없음,해당없음,해당없음,해당없음,해당없음,37.51115026,126.733802,인천광역시 부평구 굴포로114 부평구노인복지관
170,인천광역시,부평구,정다운노인요양센터,"인천 부평구 부흥로 337 (부평동, 신한은행 부평금융센터) 5층",032-521-4457,2024-01-01 ~ 2025-12-31 (2년),재가노인복지시설,해당없음,해당없음,해당,해당,해당없음,해당,37.49860336,126.7295642,인천 부평구 부흥로 337  5층
171,인천광역시,서구,연희노인문화센터,인천광역시 서구 승학로 263,032-569-7351,2024-01-01 ~ 2026-12-31 (3년),노인여가복지시설,해당,해당없음,해당없음,해당없음,해당없음,해당없음,37.53613335,126.6759041,인천광역시 서구 승학로 263
172,인천광역시,서구,서구노인복지관,인천광역시 서구 신석로 121번길 10,032-582-4071,2024-01-01 ~ 2026-12-31 (3년),노인여가복지시설,해당없음,해당,해당없음,해당없음,해당없음,해당없음,37.51076336,126.6760543,인천광역시 서구 신석로 121번길 10
173,인천광역시,서구,가좌노인문화센터,인천광역시 서구 장고개로387(가좌동),032-581-7074,2021-01-01 ~ 2023-12-31 (3년),노인여가복지시설,해당,해당없음,해당없음,해당없음,해당없음,해당없음,37.49558957,126.6912207,인천광역시 서구 장고개로387
174,인천광역시,서구,검단노인복지관,인천광역시 서구 검단로 502번길 15-1 검단노인복지관,032-561-0129,2024-01-01 ~ 2026-12-31 (3년),노인여가복지시설,해당없음,해당없음,해당없음,해당없음,해당없음,해당없음,37.60196626,126.6616316,인천광역시 서구 검단로 502번길 15-1 검단노인복지관
175,인천광역시,연수구,연수구재가노인복지센터,인천광역시 연수구 함박뫼로 194(연수3동 580),032-811-1230,2024-01-01 ~ 2025-12-31 (2년),재가노인복지시설,해당,해당없음,해당,해당,해당없음,해당없음,37.42110245,126.6877626,인천광역시 연수구 함박뫼로 194
176,인천광역시,연수구,청학노인복지관,인천광역시 연수구 청학로 12번길 53,032-831-7131,2021-01-01 ~ 2024-12-31 (4년),노인여가복지시설,해당없음,해당없음,해당없음,해당없음,해당없음,해당없음,37.42767715,126.666614,인천광역시 연수구 청학로 12번길 53
177,인천광역시,중구,중구재가노인지원서비스센터,인천광역시 중구 우현로 3 범진빌딩 4층,032-764-5221,2024-01-01 ~ 2025-12-31 (2년),재가노인복지시설,해당없음,해당없음,해당없음,해당,해당없음,해당없음,37.46861207,126.6253397,인천광역시 중구 우현로 3 범진빌딩 4층
178,인천광역시,강화군,강화군청(사회복지과),인천광역시 강화군 강화읍 강화대로 394,032-930-3881,2024-01-01 ~ 2024-12-31 (1년),직영(지자체),해당없음,해당없음,해당없음,해당없음,해당없음,해당없음,37.74614827,126.4877069,인천광역시 강화군 강화읍 강화대로 394
179,인천광역시,옹진군,옹진군청,"인천광역시 매소홀로 120, 옹진군청 3층 행정복지국 사회복지과",032-899-2326,2004-01-01 ~ 2024-12-31 (21년),직영(지자체),해당없음,해당없음,해당없음,해당없음,해당없음,해당없음,37.44657047,126.6367454,인천광역시 매소홀로 120
180,광주광역시,광산구,송광종합사회복지관,광주광역시 광산구 우산로 17,062-941-8248,2024-01-01 ~ 2025-12-31 (2년),사회복지관,해당,해당없음,해당없음,해당없음,해당없음,해당없음,35.15665218,126.8090826,광주광역시 광산구 우산로 17
181,광주광역시,광산구,원광효도복지센터,광주광역시 광산구 신창로138번길 23-17 (신창동),062-945-3513,2024-01-01 ~ 2024-12-31 (1년),재가노인복지시설,해당없음,해당없음,해당없음,해당없음,해당없음,해당없음,35.19719437,126.8407684,광주광역시 광산구 신창로138번길 23-17
182,광주광역시,광산구,하남효사랑,광주 광산구 임곡로 649 (안청동) 하남효사랑,062-952-9506,2024-01-01 ~ 2025-12-31 (2년),법인,해당없음,해당없음,해당없음,해당없음,해당없음,해당없음,35.21697734,126.8014904,광주 광산구 임곡로 649  하남효사랑
183,광주광역시,광산구,호연실버홈,광주 광산구 용진로 28-13 (도덕동),062-943-3004,2023-01-01 ~ 2024-12-31 (2년),요양시설,해당없음,해당없음,해당없음,해당없음,해당없음,해당없음,35.16469361,126.702759,광주 광산구 용진로 28-13
184,광주광역시,남구,남구노인복지관,광주광역시 남구 대남대로308번길 32,062-674-5666,2024-01-01 ~ 2025-12-31 (2년),노인여가복지시설,해당없음,해당,해당없음,해당없음,해당없음,해당,35.14132049,126.8966472,광주광역시 남구 대남대로308번길 32
185,광주광역시,남구,광주공원노인복지센터,광주 남구 서오층석탑2길 1 (서동) 1층 광주공원노인복지센터,062-674-3374,2024-01-01 ~ 2025-12-31 (2년),재가노인복지시설,해당없음,해당없음,해당,해당없음,해당없음,해당없음,35.14629053,126.9075159,광주 남구 서오층석탑2길 1  1층 광주공원노인복지센터
186,광주광역시,남구,로뎀노인복지센터,"광주 남구 대남대로308번길 27 (월산동, 만생약국)",062-363-9214,2024-01-01 ~ 2025-12-31 (2년),재가노인복지시설,해당,해당없음,해당,해당없음,해당없음,해당,35.14113532,126.8965215,광주 남구 대남대로308번길 27
187,광주광역시,동구,C.C.C.동구노인복지센터,광주광역시 동구 동명로20번길8,062-232-4950,2023-01-01 ~ 2024-12-31 (2년),재가노인복지시설,해당없음,해당없음,해당,해당,해당없음,해당,35.1505278,126.924072,광주광역시 동구 동명로20번길8
188,광주광역시,동구,빛고을종합사회복지관,"광주 동구 천변좌로 656 (용산동, 빛고을종합사회복지관)",062-234-4563,2023-01-01 ~ 2024-12-31 (2년),사회복지관,해당,해당,해당없음,해당없음,해당없음,해당,35.1256308,126.9295742,광주 동구 천변좌로 656
189,광주광역시,북구,우산종합사회복지관,광주광역시 북구 중문로 55 2층 우산종합사회복지관내 노인맞춤돌봄사무실,062-266-3851,2023-01-01 ~ 2024-12-31 (2년),사회복지관,해당없음,해당없음,해당없음,해당없음,해당없음,해당,35.17800345,35.17800345,광주광역시 북구 중문로 55 2층 우산종합사회복지관내 노인맞춤돌봄사무실
190,광주광역시,북구,북구노인종합복지관,"광주광역시 북구 군왕로130번길 30 (두암동, 북구노인종합복지회관)",062-266-7727,2023-01-01 ~ 2024-12-31 (2년),노인여가복지시설,해당없음,해당,해당없음,해당없음,해당없음,해당,35.17235896,126.9343608,광주광역시 북구 군왕로130번길 30
191,광주광역시,북구,효령노인복지타운 노인맞춤돌봄서비스,광주광역시 북구 하서로 950 노인맞춤돌봄서비스,062-603-9988,2023-01-01 ~ 2024-12-31 (2년),노인여가복지시설,해당,해당없음,해당없음,해당없음,해당없음,해당,35.2406953,126.9123381,광주광역시 북구 하서로 950 노인맞춤돌봄서비스
192,광주광역시,북구,참빛복지원,광주 북구 서강로67번길 24-21 (운암동) 참빛요양원,062-515-1547,2023-01-01 ~ 2024-12-31 (2년),사회복지법인,해당없음,해당없음,해당없음,해당없음,해당없음,해당없음,35.17870046,126.8697227,광주 북구 서강로67번길 24-21  참빛요양원
193,광주광역시,북구,사단법인 농담,"광주 북구 삼정로 7 (두암동, 율곡타운아파트,두암주공2단지아파트) 두암주공2단지 상가동 208호",062-269-4502,2023-01-01 ~ 2024-12-31 (2년),법인,해당없음,해당없음,해당없음,해당없음,해당없음,해당없음,35.16528991,126.9345857,광주 북구 삼정로 7  두암주공2단지 상가동 208호
194,광주광역시,북구,동강대학교 산학협력단,"광주 북구 동문대로 50 (두암동, 동강대학)",062-520-2375,2023-01-01 ~ 2024-12-31 (2년),학교,해당,해당없음,해당없음,해당없음,해당없음,해당없음,35.16943786,126.9223461,광주 북구 동문대로 50
195,광주광역시,서구,서구노인종합복지관,광주광역시 서구 군분2로 55,062-365-9688,2024-01-01 ~ 2024-12-31 (1년),노인여가복지시설,해당없음,해당,해당없음,해당없음,해당없음,해당,35.15611845,126.8810439,광주광역시 서구 군분2로 55
196,광주광역시,서구,쌍촌종합사회복지관,광주광역시 서구 쌍학로 47,062-385-4501,2023-01-01 ~ 2024-12-31 (2년),사회복지관,해당,해당없음,해당없음,해당없음,해당없음,해당없음,35.14648083,126.8686554,광주광역시 서구 쌍학로 47
197,광주광역시,서구,금호종합사회복지관,광주광역시 서구 운천로32번길 23,062-376-3017,2023-01-01 ~ 2024-12-31 (2년),사회복지관,해당없음,해당없음,해당없음,해당없음,해당없음,해당없음,35.13551085,126.8611843,광주광역시 서구 운천로32번길 23
198,광주광역시,서구,시영종합사회복지관,"광주 서구 화정로 87 (쌍촌동, 시영아파트)",062-372-0360,2023-01-01 ~ 2024-12-31 (2년),사회복지관,해당없음,해당없음,해당없음,해당없음,해당없음,해당없음,35.14517345,126.8668311,광주 서구 화정로 87
199,대전광역시,대덕구,대덕구노인종합복지관,대전광역시 대덕구 계족로740번길 80,042-627-0767,2024-01-01 ~ 2025-12-31 (2년),노인여가복지시설,해당,해당,해당없음,해당없음,해당없음,해당없음,36.37888975,127.4332238,대전광역시 대덕구 계족로740번길 80
200,대전광역시,대덕구,법동종합사회복지관,대전광역시 대덕구 계족로664번길 27,042-633-0239,2024-01-01 ~ 2025-12-31 (2년),사회복지관,해당없음,해당없음,해당없음,해당없음,해당없음,해당없음,36.37062423,127.4312316,대전광역시 대덕구 계족로664번길 27
201,대전광역시,대덕구,대덕종합사회복지관,대전광역시 대덕구 덕암로 234번길 44,042-936-7343,2024-01-01 ~ 2025-12-31 (2년),사회복지관,해당없음,해당없음,해당없음,해당없음,해당없음,해당없음,36.44018594,127.4265433,대전광역시 대덕구 덕암로 234번길 44
202,대전광역시,대덕구,대덕사랑노인복지센터,"대전 대덕구 송촌북로36번길 10 (송촌동) , 송촌컨벤션센터 507호",042-322-2024,2024-01-02 ~ 2025-12-31 (2년),사회복지법인,해당없음,해당없음,해당,해당,해당없음,해당,36.36538185,127.4367592,대전 대덕구 송촌북로36번길 10
203,대전광역시,대덕구,중리종합사회복지관,대전 대덕구 계족로663번길 34 (법동),042-628-1476,2024-01-01 ~ 2025-12-31 (2년),사회복지법인,해당없음,해당없음,해당없음,해당없음,해당없음,해당없음,36.3706044,127.4247393,대전 대덕구 계족로663번길 34
204,대전광역시,동구,동구 정다운어르신복지관,대전광역시 동구 충정로 53-30,042-626-2736,2024-01-01 ~ 2026-12-31 (3년),노인여가복지시설,해당,해당,해당없음,해당없음,해당없음,해당,36.3489714,127.4526605,대전광역시 동구 충정로 53-30
205,대전광역시,동구,동구행복한어르신복지관,대전광역시 동구 동부로 23,042-282-5910,2024-01-01 ~ 2026-12-31 (3년),노인여가복지시설,해당없음,해당없음,해당없음,해당없음,해당없음,해당없음,36.32105567,127.4583925,대전광역시 동구 동부로 23
206,대전광역시,동구,선우노인복지센터,대전광역시 동구 신기로 109-22(가오동),042-273-0045,2024-01-01 ~ 2026-12-31 (3년),재가노인복지시설,해당없음,해당없음,해당,해당,해당없음,해당없음,36.31231517,127.4583773,대전광역시 동구 신기로 109-22
207,대전광역시,동구,금성노인복지센터,"대전광역시 동구 우암로 139-3, 1,3,4층",042-626-7530,2024-01-01 ~ 2026-12-31 (3년),재가노인복지시설,해당없음,해당없음,해당,해당,해당없음,해당,36.33962451,127.4332501,대전광역시 동구 우암로 139-3
208,대전광역시,서구,유등노인복지관,대전광역시 서구 도솔로 182,042-528-0890,2022-01-01 ~ 2024-12-31 (3년),노인여가복지시설,해당,해당없음,해당없음,해당없음,해당없음,해당없음,36.33123235,127.3766976,대전광역시 서구 도솔로 182
209,대전광역시,서구,대전서구지역자활센터,대전광역시 서구 계룡로 676 주원빌딩 5층,042-527-1654,2022-01-01 ~ 2024-12-31 (3년),지역자활센터,해당없음,해당없음,해당없음,해당없음,해당없음,해당없음,36.33593247,127.3954603,대전광역시 서구 계룡로 676 주원빌딩 5층
210,대전광역시,서구,서구노인복지관 재가노인지원센터,대전광역시 서구 남선로 66,042-488-6297,2022-01-01 ~ 2024-12-31 (3년),재가노인복지시설,해당,해당,해당없음,해당,해당없음,해당없음,36.34648536,127.3963842,대전광역시 서구 남선로 66
211,대전광역시,서구,관저종합사회복지관,대전광역시 서구 구봉로 13,042-545-6810,2022-07-01 ~ 2024-12-31 (3년),사회복지관,해당없음,해당없음,해당없음,해당없음,해당없음,해당없음,36.29865325,127.3238213,대전광역시 서구 구봉로 13
212,대전광역시,서구,대전광역시사회서비스원 광역종합재가센터,"대전 서구 한밭대로592번길 6 (월평동, 장인빌딩) 201호",042-331-8995,2022-01-01 ~ 2024-12-31 (3년),재가노인복지시설,해당없음,해당없음,해당,해당없음,해당,해당없음,36.35771089,127.3643994,대전 서구 한밭대로592번길 6  201호
213,대전광역시,서구,노인전문요양원 해피존,"대전 서구 정각길 200-64 (산직동, 경일복지원)",042-586-5185,2022-07-01 ~ 2024-12-31 (3년),요양시설,해당없음,해당없음,해당없음,해당없음,해당없음,해당없음,36.24143844,127.3557774,대전 서구 정각길 200-64
214,대전광역시,서구,실버누리요양원,대전 서구 흑석2길 37 (흑석동),042-583-2778,2022-07-01 ~ 2024-12-31 (3년),요양시설,해당없음,해당없음,해당없음,해당없음,해당없음,해당없음,36.25562729,127.3420447,대전 서구 흑석2길 37
215,대전광역시,유성구,유성노인복지센터,대전광역시 유성구 수통골로71번길 10(유성노인복지센터),042-823-7440,2023-01-01 ~ 2024-12-31 (2년),재가노인복지시설,해당없음,해당없음,해당없음,해당,해당없음,해당없음,36.34682097,127.2928733,대전광역시 유성구 수통골로71번길 10
216,대전광역시,유성구,유성구노인복지관,대전광역시 유성구 가정로 15 유성구노인복지관,042-862-4634,2023-01-01 ~ 2024-12-31 (2년),노인여가복지시설,해당,해당,해당없음,해당,해당없음,해당,36.38454829,127.3440256,대전광역시 유성구 가정로 15 유성구노인복지관
217,대전광역시,유성구,유성실버복지센터,대전 유성구 원신흥남로27번길 54 (원신흥동) 유성실버복지센터,042-823-3233,2023-01-01 ~ 2024-12-31 (2년),노인여가복지시설,해당없음,해당없음,해당없음,해당없음,해당없음,해당없음,36.3341606,127.3355128,대전 유성구 원신흥남로27번길 54  유성실버복지센터
218,대전광역시,중구,대전광역시노인복지관,대전광역시 중구 테미로 26,042-242-3100,2023-01-01 ~ 2024-12-31 (2년),노인여가복지시설,해당,해당,해당없음,해당없음,해당,해당없음,36.31876605,127.4203003,대전광역시 중구 테미로 26
219,대전광역시,중구,대전노인복지센터,대전광역시 중구 수침로 89 2층 대전노인복지센터,042-283-1004,2023-01-01 ~ 2024-12-31 (2년),재가노인복지시설,해당없음,해당없음,해당없음,해당,해당없음,해당없음,36.32741788,127.3992543,대전광역시 중구 수침로 89 2층 대전노인복지센터
220,대전광역시,중구,한빛재가노인복지센터,대전 중구 사정공원로 289 (산성동),042-582-8868,2023-01-01 ~ 2024-12-31 (2년),재가노인복지시설,해당없음,해당없음,해당없음,해당없음,해당없음,해당없음,36.30498874,127.3942148,대전 중구 사정공원로 289
221,대전광역시,중구,이웃사랑재가노인지원서비스센터,대전 중구 문창로 123 (문창동) 2층,042-222-2190,2023-01-01 ~ 2024-12-31 (2년),재가노인복지시설,해당없음,해당없음,해당,해당,해당없음,해당없음,36.32371911,127.4307323,대전 중구 문창로 123  2층
222,울산광역시,남구,도산노인복지관,울산광역시 남구 대암로129번길 4,052-265-5221,2023-01-01 ~ 2024-12-31 (2년),노인여가복지시설,해당없음,해당없음,해당없음,해당없음,해당없음,해당없음,35.53018385,129.3296259,울산광역시 남구 대암로129번길 4
223,울산광역시,남구,선암호수노인복지관,울산광역시 남구 선암호수길150,052-268-6080,2023-01-01 ~ 2024-12-31 (2년),노인여가복지시설,해당,해당,해당없음,해당없음,해당없음,해당없음,35.51469914,129.3187859,울산광역시 남구 선암호수길150
224,울산광역시,남구,문수실버복지관,"울산 남구 대학로1번길 3-51 (무거동, 문수실버복지관)",052-247-3740,2023-01-01 ~ 2024-12-31 (2년),노인여가복지시설,해당없음,해당없음,해당없음,해당없음,해당없음,해당없음,35.53555836,129.2505529,울산 남구 대학로1번길 3-51
225,울산광역시,동구,울산동구종합사회복지관,"울산광역시 동구 봉수로 155, 울산동구종합사회복지관 2층",052-236-1465,2022-01-01 ~ 2024-12-31 (3년),사회복지관,해당없음,해당없음,해당없음,해당없음,해당없음,해당,35.5050746,129.4164426,울산광역시 동구 봉수로 155
226,울산광역시,동구,울산동구노인복지관,울산광역시 동구 명덕 6길 33,052-252-2118,2022-01-01 ~ 2024-12-31 (3년),노인여가복지시설,해당,해당,해당없음,해당없음,해당없음,해당,35.52461732,129.4314639,울산광역시 동구 명덕 6길 33
227,울산광역시,북구,울산북구노인복지관,울산광역시 북구 동대8길 40,052-296-3901,2024-01-01 ~ 2026-12-31 (3년),노인여가복지시설,해당,해당없음,해당없음,해당없음,해당없음,해당없음,35.63174545,129.353747,울산광역시 북구 동대8길 40
228,울산광역시,북구,한울타리재가노인지원서비스센터,울산광역시 북구 상방로 147 보성빌딩 5층,052-288-8430,2024-01-01 ~ 2026-12-31 (3년),재가노인복지시설,해당없음,해당없음,해당,해당,해당없음,해당없음,35.58394316,129.3661878,울산광역시 북구 상방로 147 보성빌딩 5층
229,울산광역시,울주군,행복누리재가노인지원서비스센터,울산광역시 울주군 두서면 인보로 94,052-263-5511,2022-01-01 ~ 2024-12-31 (3년),재가노인복지시설,해당없음,해당없음,해당없음,해당,해당없음,해당없음,35.64050176,129.1585667,울산광역시 울주군 두서면 인보로 94
230,울산광역시,울주군,울산노인요양원,"울산광역시 울주군 언양읍 방천 8길 5, 2층",052-263-3304,2022-01-01 ~ 2024-12-31 (3년),요양시설,해당없음,해당없음,해당없음,해당없음,해당없음,해당없음,35.56711844,129.1124014,울산광역시 울주군 언양읍 방천 8길 5
231,울산광역시,울주군,행복한재가노인지원서비스센터,울산 울주군 언양읍 읍성로 91-1,052-263-5335,2022-01-01 ~ 2024-12-31 (3년),재가노인복지시설,해당,해당,해당,해당,해당없음,해당없음,35.56749445,129.1178823,울산 울주군 언양읍 읍성로 91-1
232,울산광역시,울주군,울주재가노인지원서비스센터,울산광역시 울주군 온양읍 남창로 449,052-238-9191,2022-01-01 ~ 2024-12-31 (3년),재가노인복지시설,해당없음,해당없음,해당,해당,해당없음,해당없음,35.41309731,129.2707142,울산광역시 울주군 온양읍 남창로 449
233,울산광역시,중구,장수재가노인지원서비스센터,"울산광역시 중구 학성로 116, 4층",052-900-0072,2023-01-01 ~ 2024-12-31 (2년),재가노인복지시설,해당없음,해당없음,해당없음,해당,해당없음,해당없음,35.55553087,129.3236976,울산광역시 중구 학성로 116
234,울산광역시,중구,울산중구재가노인지원서비스센터,울산광역시 중구 난곡10길 22,052-223-1322,2023-01-01 ~ 2024-12-31 (2년),재가노인복지시설,해당,해당없음,해당,해당,해당없음,해당없음,35.5560949,129.2790264,울산광역시 중구 난곡10길 22
235,울산광역시,중구,국민재가노인지원서비스센터,울산 중구 옥교로 105 (학성동) 3층,052-295-1300,2023-01-01 ~ 2024-12-31 (2년),재가노인복지시설,해당없음,해당,해당없음,해당,해당없음,해당없음,35.55179822,129.3354586,울산 중구 옥교로 105  3층
236,경기도,가평군,청평노인복지관,경기 가평군 청평면 은고개로 39 (청평호반 문화체육센터) 2층,031-582-8879,2024-01-01 ~ 2024-12-31 (1년),노인여가복지시설,해당없음,해당,해당없음,해당없음,해당없음,해당없음,37.73920442,127.4243472,경기 가평군 청평면 은고개로 39  2층
237,경기도,고양시,덕양노인종합복지관,경기도 고양시 덕양구 어울림로49(화정동 846),031-969-7781,2024-01-01 ~ 2026-12-31 (3년),노인여가복지시설,해당,해당없음,해당없음,해당없음,해당없음,해당없음,37.64844456,126.8366845,경기도 고양시 덕양구 어울림로49
238,경기도,고양시,원당종합사회복지관,경기도 고양시 덕양구 호국로716번길 13-11,031-966-4007,2021-01-01 ~ 2023-12-31 (3년),사회복지관,해당없음,해당,해당없음,해당없음,해당없음,해당없음,37.65162545,126.8328671,경기도 고양시 덕양구 호국로716번길 13-11
239,경기도,고양시,덕양행신종합사회복지관,경기도 고양시 덕양구 서정마을 2로 13,031-839-6000,2024-01-01 ~ 2026-12-31 (3년),사회복지관,해당없음,해당없음,해당없음,해당없음,해당없음,해당없음,37.62138226,126.8471264,경기도 고양시 덕양구 서정마을 2로 13
240,경기도,고양시,고양시삼송동종합복지회관,경기도 고양시 덕양구 삼송로 180,02-381-9094,2024-01-01 ~ 2026-12-31 (3년),사회복지법인,해당없음,해당없음,해당없음,해당없음,해당없음,해당없음,37.65314575,126.8938861,경기도 고양시 덕양구 삼송로 180
241,경기도,고양시,효샘재가노인지원서비스센터,경기 고양시 덕양구 토당로104번길 18(토당동),031-970-0361,2024-01-01 ~ 2026-12-31 (3년),재가노인복지시설,해당없음,해당없음,해당없음,해당,해당없음,해당없음,37.62415561,126.818235,경기 고양시 덕양구 토당로104번길 18
242,경기도,고양시,일산노인종합복지관,경기도 고양시 일산동구 호수로 731,031-961-4300,2020-01-01 ~ 2026-12-31 (7년),노인여가복지시설,해당,해당,해당없음,해당없음,해당없음,해당없음,37.66445985,126.7604179,경기도 고양시 일산동구 호수로 731
243,경기도,고양시,고양시흰돌종합사회복지관,경기도 고양시 일산동구 장백로 61,031-905-3400,2024-01-01 ~ 2026-12-31 (3년),사회복지관,해당없음,해당없음,해당없음,해당없음,해당없음,해당없음,37.642415,126.7857514,경기도 고양시 일산동구 장백로 61
244,경기도,고양시,대화노인종합복지관,경기도 고양시 일산서구 일산로 778,031-917-1352,2024-01-01 ~ 2026-12-31 (3년),노인여가복지시설,해당,해당없음,해당없음,해당없음,해당없음,해당없음,37.6745025,126.7481887,경기도 고양시 일산서구 일산로 778
245,경기도,고양시,문촌7종합사회복지관,경기도 고양시 일산서구 킨텍스로340,031-916-4071,2024-01-01 ~ 2026-12-31 (3년),사회복지관,해당없음,해당없음,해당없음,해당없음,해당없음,해당없음,37.67448889,126.7551636,경기도 고양시 일산서구 킨텍스로340
246,경기도,고양시,고양시문촌9종합사회복지관,"경기도 고양시 일산서구 주엽로 156(주엽동, 문촌마을9단지)",031-917-0202,2024-01-01 ~ 2026-12-31 (3년),사회복지관,해당없음,해당없음,해당없음,해당없음,해당없음,해당없음,37.67221575,126.760176,경기도 고양시 일산서구 주엽로 156
247,경기도,과천시,과천시노인복지관,경기도 과천시 문원로 57,02-502-8500,2024-01-01 ~ 2025-12-31 (2년),노인여가복지시설,해당,해당,해당없음,해당,해당없음,해당,37.42816715,127.0040893,경기도 과천시 문원로 57
248,경기도,광명시,광명시립하안노인종합복지관,경기도 광명시 철망산로 48,02-898-8830,2024-01-01 ~ 2024-12-31 (1년),노인여가복지시설,해당없음,해당없음,해당없음,해당없음,해당없음,해당없음,37.46964449,126.876742,경기도 광명시 철망산로 48
249,경기도,광명시,광명시립 소하노인종합복지관,경기도 광명시 소하로 25 광명시립 소하노인종합복지관,02-2625-9300,2023-01-01 ~ 2023-12-31 (1년),노인여가복지시설,해당없음,해당,해당없음,해당없음,해당없음,해당없음,37.45222291,126.8849694,경기도 광명시 소하로 25 광명시립 소하노인종합복지관
250,경기도,광주시,북부무한돌봄행복나눔센터,"경기도 광주시 중앙로175번길12,1층",031-798-8760,2024-01-01 ~ 2028-12-31 (5년),지방자치단체 사회복지시설,해당없음,해당없음,해당없음,해당없음,해당없음,해당없음,37.4158308,127.2557457,경기도 광주시 중앙로175번길12
251,경기도,광주시,광주시남부무한돌봄행복나눔센터,경기도 광주시 오포로 859번길 29(오포1동 행정복지센터 2층),031-798-8790,2024-01-01 ~ 2028-12-31 (5년),기타,해당없음,해당없음,해당없음,해당없음,해당없음,해당없음,37.36613244,127.2286186,경기도 광주시 오포로 859번길 29
252,경기도,광주시,평강호스피스,경기 광주시 수하길 9 (송정동) 성현빌딩 402호,031-761-0321,2024-01-01 ~ 2028-12-31 (5년),기타,해당없음,해당없음,해당없음,해당없음,해당없음,해당없음,37.41552018,127.2613655,경기 광주시 수하길 9  성현빌딩 402호
253,경기도,구리시,경기구리지역자활센터,경기도 구리시 동구릉로136번길90 구리농수산물도매시장 청과물동 A동 2층 203호,031-567-6668,2024-01-01 ~ 2025-12-31 (2년),지역자활센터,해당없음,해당없음,해당없음,해당없음,해당없음,해당없음,37.6119765,127.1431695,경기도 구리시 동구릉로136번길90 구리농수산물도매시장 청과물동 A동 2층 203호
254,경기도,구리시,구리시종합사회복지관,경기도 구리시 벌말로129번길50,031-556-8100,2024-01-01 ~ 2024-12-31 (1년),사회복지관,해당,해당,해당없음,해당없음,해당없음,해당없음,37.58919687,127.14639,경기도 구리시 벌말로129번길50
255,경기도,군포시,군포시늘푸른노인복지관,경기도 군포시 산본천로 101(산본동),031-392-5755,2024-01-01 ~ 2026-12-31 (3년),노인여가복지시설,해당,해당없음,해당없음,해당없음,해당없음,해당,37.36397657,126.9331037,경기도 군포시 산본천로 101
256,경기도,군포시,성민재가노인복지센터,"경기도 군포시 군포로 487 502호(당동,동영프라자)",031-397-2020,2022-01-01 ~ 2023-12-31 (2년),재가노인복지시설,해당,해당,해당없음,해당,해당없음,해당,37.34995184,126.9441073,경기도 군포시 군포로 487 502호
257,경기도,김포시,김포북부노인복지관,경기도 김포시 통진읍 마송1로 16번길 40-2,031-984-0108,2022-04-11 ~ 2027-04-10 (5년),노인여가복지시설,해당없음,해당,해당없음,해당없음,해당없음,해당없음,37.68367903,126.6068126,경기도 김포시 통진읍 마송1로 16번길 40-2
258,경기도,김포시,김포시노인종합복지관,경기도 김포시 사우중로 74번길 48 김포시노인종합복지관,031-997-9300,2022-02-17 ~ 2025-02-16 (4년),노인여가복지시설,해당없음,해당,해당없음,해당없음,해당없음,해당없음,37.62228806,126.7226114,경기도 김포시 사우중로 74번길 48 김포시노인종합복지관
259,경기도,남양주시,남양주시노인복지관,경기도 남양주시 진건오남로 359,031-573-6598,2023-01-01 ~ 2024-12-31 (2년),노인여가복지시설,해당없음,해당,해당없음,해당없음,해당없음,해당,37.68167725,127.2100983,경기도 남양주시 진건오남로 359
260,경기도,남양주시,해피누리노인복지관,"경기 남양주시 늘을2로 67 (호평동, 호평체육문화센터)",031-590-3000,2022-01-01 ~ 2024-12-31 (3년),노인여가복지시설,해당,해당없음,해당없음,해당없음,해당없음,해당없음,37.65887795,127.2422797,경기 남양주시 늘을2로 67
261,경기도,남양주시,남양주시동부노인복지관,경기 남양주시 수동면 비룡로 801-47 (남양주시동부노인복지관),031-559-5880,2022-01-01 ~ 2024-12-31 (3년),노인여가복지시설,해당없음,해당없음,해당없음,해당없음,해당없음,해당없음,37.70970126,127.3205097,경기 남양주시 수동면 비룡로 801-47
262,경기도,남양주시,사회적협동조합 일과나눔 도우누리,"경기 남양주시 경춘로 997 (금곡동, 만복빌딩) 1층",031-559-3506,2022-01-01 ~ 2024-12-31 (3년),협동조합,해당없음,해당없음,해당,해당없음,해당없음,해당없음,37.63522078,127.2124058,경기 남양주시 경춘로 997  1층
263,경기도,동두천시,동두천시노인복지관,경기도 동두천시 동두천로 264,031-858-9918,2022-01-01 ~ 2024-12-31 (3년),노인여가복지시설,해당,해당,해당없음,해당없음,해당없음,해당없음,37.90156439,127.0549279,경기도 동두천시 동두천로 264
264,경기도,부천시,부천시원미노인복지관,"경기 부천시 원미구 부천로136번길 27 (원미동, 원미구청) 2층",032-322-2260,2023-01-01 ~ 2024-12-31 (2년),노인여가복지시설,해당,해당없음,해당없음,해당없음,해당없음,해당없음,37.49673391,126.7875099,경기 부천시 원미구 부천로136번길 27  2층
265,경기도,부천시,부천시소사노인복지관,"경기도 부천시 소사구 경인옛로73, 소사구청 3층",032-347-9534,2023-01-01 ~ 2024-12-31 (2년),노인여가복지시설,해당없음,해당없음,해당없음,해당없음,해당없음,해당없음,37.48004709,126.7999473,경기도 부천시 소사구 경인옛로73
266,경기도,부천시,부천시오정노인복지관,경기도 부천시 성오로 172 오정구청 지하1층,032-683-9290,2021-01-01 ~ 2024-12-31 (4년),노인여가복지시설,해당,해당,해당없음,해당없음,해당없음,해당,37.52834682,126.7960266,경기도 부천시 성오로 172 오정구청 지하1층
267,경기도,부천시,상동종합사회복지관,"경기 부천시 석천로16번길 50 (상동, 상동어울마당)",032-652-0420,2023-01-01 ~ 2024-12-31 (2년),사회복지관,해당없음,해당없음,해당없음,해당없음,해당없음,해당없음,37.4888931,126.7628441,경기 부천시 석천로16번길 50
268,경기도,부천시,경기부천나눔지역자활센터,"경기 부천시 소사구 경인로224번길 36 (심곡본동, 두레광장), 3층",032-719-9973,2023-01-01 ~ 2024-12-31 (2년),지역자활센터,해당없음,해당없음,해당없음,해당없음,해당없음,해당없음,37.48168596,126.779943,경기 부천시 소사구 경인로224번길 36
269,경기도,부천시,고강종합사회복지관,"경기 부천시 고리울로 79 (고강동, 고강본주민지원센터)",032-677-9090,2024-01-01 ~ 2025-12-31 (2년),사회복지관,해당없음,해당없음,해당없음,해당없음,해당없음,해당없음,37.52705487,126.8248156,경기 부천시 고리울로 79
270,경기도,성남시,수정노인종합복지관,경기도 성남시 수정구 수정남로268번길 28(산성동2178),031-731-3393,2023-01-01 ~ 2025-12-31 (3년),노인여가복지시설,해당,해당없음,해당없음,해당없음,해당없음,해당,37.45094425,127.1529606,경기도 성남시 수정구 수정남로268번길 28
271,경기도,성남시,수정중앙노인종합복지관,경기도 성남시 수정구 성남대로 1480번길 38,031-752-3366,2023-01-01 ~ 2025-12-31 (3년),노인여가복지시설,해당없음,해당없음,해당없음,해당없음,해당없음,해당없음,37.46150273,127.1304459,경기도 성남시 수정구 성남대로 1480번길 38
272,경기도,성남시,판교노인종합복지관,경기도 성남시 분당구 판교역로99(백현동),031-620-2810,2023-01-01 ~ 2025-12-31 (3년),노인여가복지시설,해당,해당없음,해당없음,해당없음,해당없음,해당없음,37.39022562,127.1086124,경기도 성남시 분당구 판교역로99
273,경기도,성남시,성남시독거노인종합지원센터,"경기도 성남시 분당구 야탑로205번길 26, 성남시니어산업혁신센터 219호",031-728-9900,2023-01-01 ~ 2025-12-31 (3년),지방자치단체 사회복지시설,해당,해당,해당없음,해당없음,해당없음,해당없음,37.41068957,127.1429492,경기도 성남시 분당구 야탑로205번길 26
274,경기도,성남시,태평4동복지회관,"경기 성남시 수정구 공원로409번길 11 (태평동, 태평4동 다목적 복지 회관)",031-751-2993,2023-01-01 ~ 2025-12-31 (3년),사회복지관,해당없음,해당없음,해당없음,해당없음,해당없음,해당없음,37.44653246,127.1430938,경기 성남시 수정구 공원로409번길 11
275,경기도,성남시,중원노인종합복지관,"경기 성남시 중원구 제일로35번길 51 (성남동, 중원노인종합복지관)",031-751-7450,2023-01-01 ~ 2025-12-31 (3년),노인여가복지시설,해당없음,해당없음,해당없음,해당없음,해당없음,해당없음,37.4320359,127.1315782,경기 성남시 중원구 제일로35번길 51
276,경기도,성남시,황송노인종합복지관,경기 성남시 중원구 금상로 132 (상대원동),031-731-5520,2023-01-01 ~ 2025-12-31 (3년),노인여가복지시설,해당없음,해당없음,해당없음,해당없음,해당없음,해당없음,37.44163997,127.1691404,경기 성남시 중원구 금상로 132
277,경기도,성남시,분당노인종합복지관,"경기 성남시 분당구 불정로 50 (정자동, 분당노인종합복지관, 주택전시관)",031-785-9200,2023-01-01 ~ 2025-12-31 (3년),노인여가복지시설,해당없음,해당없음,해당없음,해당없음,해당없음,해당없음,37.35760272,127.1125084,경기 성남시 분당구 불정로 50
278,경기도,수원시,밤밭노인복지관,"경기도 수원시 장안구 상률로 53, 밤밭노인복지관",031-271-8859,2022-01-01 ~ 2024-12-31 (3년),노인여가복지시설,해당없음,해당없음,해당없음,해당없음,해당없음,해당없음,37.30638504,126.9721083,경기도 수원시 장안구 상률로 53
279,경기도,수원시,SK청솔노인복지관,경기도 수원시 장안구 장안로 174(SK청솔노인복지관),031-257-6811,2022-01-01 ~ 2024-12-31 (3년),노인여가복지시설,해당,해당,해당없음,해당,해당없음,해당없음,37.29901485,126.9975663,경기도 수원시 장안구 장안로 174
280,경기도,수원시,버드내노인복지관,경기도 수원시 권선구 권선로 564번길 36,031-898-6544,2024-01-01 ~ 2024-12-31 (1년),노인여가복지시설,해당,해당없음,해당없음,해당,해당없음,해당없음,37.26112824,127.0120752,경기도 수원시 권선구 권선로 564번길 36
281,경기도,수원시,서호노인복지관,경기도 수원시 권선구 구운로4번길 34,031-291-0911,2022-01-01 ~ 2024-12-31 (3년),노인여가복지시설,해당,해당없음,해당,해당,해당없음,해당,37.27786293,126.9770254,경기도 수원시 권선구 구운로4번길 34
282,경기도,수원시,능실종합사회복지관,"경기도 수원시 권선구 호매실로 166번길 10,능실마을 22단지 내",031-291-8475,2022-01-01 ~ 2024-12-31 (3년),사회복지관,해당없음,해당없음,해당없음,해당없음,해당없음,해당없음,37.2584856,126.9580288,경기도 수원시 권선구 호매실로 166번길 10
283,경기도,수원시,팔달노인복지관,경기도 수원시 팔달구 수원천로343(북수동),031-248-3800,2022-01-01 ~ 2024-12-31 (3년),노인여가복지시설,해당,해당없음,해당없음,해당없음,해당없음,해당없음,37.28394986,127.0173816,경기도 수원시 팔달구 수원천로343
284,경기도,수원시,수원재가노인지원서비스센터,경기 수원시 팔달구 월드컵로345번길 2 (우만동) 2층,031-309-9481,2022-01-01 ~ 2024-12-31 (3년),재가노인복지시설,해당없음,해당없음,해당,해당,해당없음,해당없음,37.28859387,127.0318431,경기 수원시 팔달구 월드컵로345번길 2  2층
285,경기도,수원시,광교노인복지관,경기도 수원시 영통구 센트럴타운로22,031-8006-7400,2022-01-01 ~ 2024-12-31 (3년),노인여가복지시설,해당,해당없음,해당없음,해당없음,해당없음,해당없음,37.28967923,127.0567413,경기도 수원시 영통구 센트럴타운로22
286,경기도,수원시,영통종합사회복지관,"경기 수원시 영통구 반달로 45 (영통동, 영통종합사회복지관) 2층 청명동 노인맞춤돌봄",031-201-8300,2022-01-01 ~ 2024-12-31 (3년),사회복지관,해당없음,해당없음,해당없음,해당없음,해당없음,해당없음,37.25070116,127.0771809,경기 수원시 영통구 반달로 45  2층 청명동 노인맞춤돌봄
287,경기도,수원시,효경의손길 재가노인지원서비스센터,경기 수원시 장안구 경수대로754번길 26-17 (연무동),031-253-0070,2022-01-01 ~ 2024-12-31 (3년),재가노인복지시설,해당없음,해당없음,해당없음,해당,해당없음,해당없음,37.291576,127.0239736,경기 수원시 장안구 경수대로754번길 26-17
288,경기도,시흥시,시흥재가노인통합지원센터,"경기도 시흥시 오동마을로6번안길 34, 4층 (정왕동,금강빌딩)",031-431-0137,2024-01-01 ~ 2028-12-31 (5년),재가노인복지시설,해당없음,해당없음,해당없음,해당,해당없음,해당없음,37.35144024,126.7455715,경기도 시흥시 오동마을로6번안길 34
289,경기도,시흥시,거모종합사회복지관,경기도 시흥시 군자로 466번길 37(3층),031-493-6347,2024-01-01 ~ 2026-12-31 (3년),사회복지관,해당,해당,해당없음,해당없음,해당없음,해당없음,37.34486315,126.7813269,경기도 시흥시 군자로 466번길 37
290,경기도,시흥시,함현상생종합사회복지관,경기도 시흥시 함송로 29번길 67,031-434-8040,2024-01-01 ~ 2026-12-31 (3년),사회복지관,해당없음,해당없음,해당없음,해당없음,해당없음,해당없음,37.3642636,126.7375166,경기도 시흥시 함송로 29번길 67
291,경기도,시흥시,작은자리종합사회복지관,경기 시흥시 시흥대로 1087 (신천동),031-313-6249,2024-03-01 ~ 2026-12-31 (3년),사회복지관,해당,해당없음,해당없음,해당없음,해당없음,해당없음,37.4329363,126.7927972,경기 시흥시 시흥대로 1087
292,경기도,안산시,상록구노인복지관,경기도 안산시 상록구 고잔로 162 성어공원 내 본관,031-414-2271,2022-01-01 ~ 2024-12-31 (3년),노인여가복지시설,해당없음,해당없음,해당없음,해당,해당없음,해당없음,37.31847573,126.8443101,경기도 안산시 상록구 고잔로 162 성어공원 내 본관
293,경기도,안산시,동산노인복지관,경기도 안산시 상록구 석호공원로 8,031-400-8777,2022-01-01 ~ 2024-12-31 (3년),노인여가복지시설,해당,해당없음,해당없음,해당없음,해당없음,해당없음,37.30147842,126.8506644,경기도 안산시 상록구 석호공원로 8
294,경기도,안산시,사회적협동조합양지돌봄,"경기 안산시 단원구 인현중앙길 29 (고잔동, 삼두빌라) 203-2호",031-362-5082,2022-01-01 ~ 2024-12-31 (3년),협동조합,해당없음,해당없음,해당,해당,해당없음,해당없음,37.3240921,126.8204198,경기 안산시 단원구 인현중앙길 29  203-2호
295,경기도,안산시,부곡종합사회복지관,경기도 안산시 상록구 성호로 303,031-417-3677,2022-01-01 ~ 2024-12-31 (3년),사회복지관,해당없음,해당없음,해당없음,해당없음,해당없음,해당없음,37.3301502,126.8589195,경기도 안산시 상록구 성호로 303
296,경기도,안산시,안산시와동종합사회복지관,경기도 안산시 단원구 와동로 118,031-475-4321,2020-01-01 ~ 2023-12-31 (4년),사회복지관,해당없음,해당없음,해당없음,해당없음,해당없음,해당없음,37.34059475,126.8272647,경기도 안산시 단원구 와동로 118
297,경기도,안산시,단원구노인복지관,경기도 안산시 단원구 선부광장1로 134,031-405-1188,2020-01-01 ~ 2024-12-31 (5년),노인여가복지시설,해당,해당없음,해당없음,해당,해당없음,해당,37.33605309,126.8124486,경기도 안산시 단원구 선부광장1로 134
298,경기도,안산시,안산시초지종합사회복지관,경기도 안산시 단원구 원초로76,031-410-2151,2022-01-01 ~ 2024-12-31 (3년),사회복지관,해당없음,해당,해당없음,해당,해당없음,해당없음,37.32622623,126.8059602,경기도 안산시 단원구 원초로76
299,경기도,안성시,안성시노인복지관,경기도 안성시 장기로 109,031-674-0794,2023-01-01 ~ 2025-12-31 (3년),노인여가복지시설,해당,해당,해당없음,해당없음,해당없음,해당없음,37.00690262,127.2662286,경기도 안성시 장기로 109
300,경기도,안성시,파라밀노인복지센터,경기도 안성시 죽산면 녹배길 135 1층 보은당,031-677-3477,2023-01-01 ~ 2025-12-31 (3년),재가노인복지시설,해당없음,해당없음,해당없음,해당없음,해당없음,해당없음,37.06596989,127.3889016,경기도 안성시 죽산면 녹배길 135 1층 보은당
301,경기도,안양시,안양시만안종합사회복지관,경기도 안양시 만안구 박달로 547-1,031-464-9701,2024-01-01 ~ 2025-12-31 (2년),사회복지관,해당,해당없음,해당없음,해당없음,해당없음,해당없음,37.40216127,126.8971214,경기도 안양시 만안구 박달로 547-1
302,경기도,안양시,율목종합사회복지관,경기도 안양시 만안구 병목안로 130번길 166,031-466-9125,2024-12-31 ~ 2025-12-31 (2년),사회복지관,해당없음,해당없음,해당없음,해당없음,해당없음,해당없음,37.39312296,126.9084325,경기도 안양시 만안구 병목안로 130번길 166
303,경기도,안양시,성결재가노인지원서비스센터,경기도 안양시 동안구 경수대로 938 6층,031-425-6828,2022-01-01 ~ 2025-12-31 (4년),재가노인복지시설,해당없음,해당,해당없음,해당,해당없음,해당없음,37.39911262,126.9330804,경기도 안양시 동안구 경수대로 938 6층
304,경기도,안양시,안양시노인종합복지관,경기도 안양시 동안구 경수대로 665번길 74-30,031-455-0551,2024-01-01 ~ 2025-12-31 (2년),노인여가복지시설,해당,해당없음,해당없음,해당없음,해당없음,해당없음,37.37991239,126.9509472,경기도 안양시 동안구 경수대로 665번길 74-30
305,경기도,양주시,열린노인복지센터,"경기도 양주시 백석읍 고릉말로 26, 열린노인복지센터(2층",031-829-2091,2023-01-01 ~ 2025-12-31 (3년),노인여가복지시설,해당없음,해당,해당없음,해당없음,해당없음,해당없음,37.80219335,127.0016113,경기도 양주시 백석읍 고릉말로 26
306,경기도,양주시,양주시 회천노인복지관,"경기 양주시 화합로1426번길 90 (덕정동, 양주체육복지센터) 4충 양주시회천노인복지관",031-859-9081,2023-01-01 ~ 2025-12-31 (3년),노인여가복지시설,해당없음,해당없음,해당없음,해당없음,해당없음,해당,37.8378688,127.0678274,경기 양주시 화합로1426번길 90  4충 양주시회천노인복지관
307,경기도,양주시,양주시 희망노인복지관,경기 양주시 삼숭로58번길 108-47 (삼숭동) 다울림센터 A동 1층,031-848-6500,2023-01-01 ~ 2025-12-31 (3년),노인여가복지시설,해당,해당없음,해당없음,해당없음,해당없음,해당없음,37.80146077,127.1085679,경기 양주시 삼숭로58번길 108-47  다울림센터 A동 1층
308,경기도,양평군,양평군가족센터,경기 양평군 양평읍 중앙로 111번길 34-19 양평행복플러스센터2층,031-775-5951,2023-01-01 ~ 2025-12-31 (3년),다문화가족지원센터,해당없음,해당없음,해당없음,해당없음,해당없음,해당없음,37.49608886,127.5053473,경기 양평군 양평읍 중앙로 111번길 34-19 양평행복플러스센터2층
309,경기도,양평군,양평군노인복지관,경기도 양평군 양평대교길4번길 5,031-775-8061,2023-01-01 ~ 2025-12-31 (3년),노인여가복지시설,해당없음,해당,해당없음,해당없음,해당없음,해당없음,37.48792114,127.4913841,경기도 양평군 양평대교길4번길 5
310,경기도,여주시,여주시노인복지관,경기도 여주시 여흥로 160번길 27,031-881-0050,2023-01-01 ~ 2025-12-31 (3년),노인여가복지시설,해당,해당,해당없음,해당,해당없음,해당,37.29361955,127.6406356,경기도 여주시 여흥로 160번길 27
311,경기도,여주시,강북권역 노인맞춤돌봄서비스센터,"경기도 여주시 세종로 319-1, 3층",031-883-9101,2020-01-01 ~ 2024-12-31 (5년),노인맞춤돌봄전담시설,해당없음,해당,해당없음,해당없음,해당없음,해당없음,37.26910249,127.6383674,경기도 여주시 세종로 319-1
312,경기도,여주시,금사권역 노인맞춤돌봄서비스센터,"경기도 여주시 대신면 여양로 1980, 3층",031-883-9105,2023-01-01 ~ 2025-12-31 (3년),노인맞춤돌봄전담시설,해당없음,해당없음,해당없음,해당없음,해당없음,해당없음,37.40300408,127.5461392,경기도 여주시 대신면 여양로 1980
313,경기도,여주시,가남반석재가노인지원서비스센터,경기도 여주시 은봉길 116-29,031-884-8359,2023-01-01 ~ 2025-12-31 (3년),재가노인복지시설,해당없음,해당없음,해당없음,해당,해당없음,해당없음,37.1863487,127.5493073,경기도 여주시 은봉길 116-29
314,경기도,연천군,연천군노인복지관,경기도 연천군 연천읍 문화로 108번길 11 연천군노인복지관,031-834-6080,2022-01-01 ~ 2024-12-31 (3년),노인여가복지시설,해당없음,해당,해당없음,해당,해당없음,해당없음,38.10350867,127.0789086,경기도 연천군 연천읍 문화로 108번길 11 연천군노인복지관
315,경기도,오산시,오산의료소비자생활협동조합,"경기도 오산시 청학로95, 대아빌딩302호(궐동,대아빌딩)",031-378-3640,2020-01-01 ~ 2024-12-31 (5년),협동조합,해당없음,해당,해당없음,해당없음,해당없음,해당없음,37.15759335,127.0644215,경기도 오산시 청학로95
316,경기도,오산시,오산종합사회복지관,경기도 오산시 현충로104,031-378-2740,2020-01-01 ~ 2024-12-31 (5년),사회복지관,해당없음,해당,해당없음,해당없음,해당없음,해당없음,37.15997401,127.0774067,경기도 오산시 현충로104
317,경기도,용인시,인보노인복지센터,경기도 용인시 처인구 포곡읍 백옥대로 1832번길 50,031-339-9146,2024-01-01 ~ 2026-12-31 (3년),재가노인복지시설,해당없음,해당없음,해당,해당,해당없음,해당없음,37.2885348,127.2401686,경기도 용인시 처인구 포곡읍 백옥대로 1832번길 50
318,경기도,용인시,용인대학교 글로벌사회공헌원,경기도 용인시 처인구 용인대학로 134 용인대학교 글로벌사회공헌원 (중앙도서관 신관 4층),031-8020-3394,2024-01-01 ~ 2026-12-31 (3년),학교,해당없음,해당없음,해당없음,해당없음,해당없음,해당없음,37.22787888,127.1707243,경기도 용인시 처인구 용인대학로 134 용인대학교 글로벌사회공헌원
319,경기도,용인시,용인시처인노인복지관,경기도 용인시 처인구 중부대로 1199 문화복지행정타운 내 용인시처인노인복지관,031-334-9301,2023-01-01 ~ 2025-12-31 (3년),노인여가복지시설,해당,해당,해당없음,해당없음,해당없음,해당없음,37.24101936,127.1778963,경기도 용인시 처인구 중부대로 1199 문화복지행정타운 내 용인시처인노인복지관
320,경기도,용인시,용인시기흥노인복지관,경기도 용인시 기흥구 산양로 71(신갈동),031-284-8852,2023-01-01 ~ 2025-12-31 (3년),노인여가복지시설,해당,해당없음,해당없음,해당없음,해당없음,해당없음,37.28797579,127.1116365,경기도 용인시 기흥구 산양로 71
321,경기도,용인시,사회적협동조합 용인도우누리,"경기도 용인시 기흥구 동백중앙로 191, 201호(중동, 씨티프라자 2층)",031-8067-8036,2024-01-01 ~ 2026-12-31 (3년),협동조합,해당없음,해당없음,해당,해당없음,해당없음,해당없음,37.27089231,127.1529594,경기도 용인시 기흥구 동백중앙로 191
322,경기도,용인시,루터대학교용인노인복지센터,경기도 용인시 기흥구 금화로82번길20 루터대학교 용인노인복지센터,031-283-6336,2024-01-01 ~ 2026-12-31 (3년),재가노인복지시설,해당없음,해당없음,해당없음,해당,해당없음,해당없음,37.26443438,127.1133734,경기도 용인시 기흥구 금화로82번길20 루터대학교 용인노인복지센터
323,경기도,용인시,구성농협재가노인복지센터,"경기도 용인시 기흥구 구성로 40, 구성농협 2층",031-8005-1922,2024-01-01 ~ 2026-12-31 (3년),재가노인복지시설,해당없음,해당없음,해당,해당없음,해당없음,해당없음,37.29424858,127.1140548,경기도 용인시 기흥구 구성로 40
324,경기도,용인시,(사)여럿이함께,"경기 용인시 수지구 죽전로 150 (죽전동, 단대프라자3) 4층, 403호 (사)여럿이함께 노인맞춤돌봄서비스",031-283-0873,2024-01-01 ~ 2026-12-31 (3년),법인,해당없음,해당없음,해당없음,해당없음,해당없음,해당없음,37.32394556,127.1242934,경기 용인시 수지구 죽전로 150 여럿이함께 노인맞춤돌봄서비스
325,경기도,용인시,용인시수지노인복지관,"경기도 용인시 수지구 포은대로 435, 수지복지센터 2층 통합사무실",031-270-0000,2024-01-01 ~ 2026-12-31 (3년),노인여가복지시설,해당,해당없음,해당없음,해당없음,해당없음,해당없음,37.32248576,127.0977278,경기도 용인시 수지구 포은대로 435
326,경기도,의왕시,아름채노인복지관,경기도 의왕시 문화공원로 47,031-427-0580,2023-01-01 ~ 2025-12-31 (6년),노인여가복지시설,해당,해당,해당없음,해당없음,해당없음,해당없음,37.3424369,126.9720742,경기도 의왕시 문화공원로 47
327,경기도,의왕시,사랑채노인복지관,경기도 의왕시 복지로109 의왕시사랑채노인복지관 2층 종합사무실,031-425-3676,2023-01-01 ~ 2025-12-31 (3년),노인여가복지시설,해당,해당없음,해당없음,해당없음,해당없음,해당없음,37.38752757,126.9816108,경기도 의왕시 복지로109 의왕시사랑채노인복지관 2층 종합사무실
328,경기도,의정부시,신곡노인종합복지관,경기도 의정부시 금신로297번길 38,031-840-5300,2023-01-01 ~ 2024-12-31 (2년),노인여가복지시설,해당없음,해당없음,해당없음,해당없음,해당없음,해당없음,37.74333032,127.0639156,경기도 의정부시 금신로297번길 38
329,경기도,의정부시,송산노인종합복지관,경기도 의정부시 용민로 99,031-852-2595,2024-01-01 ~ 2025-12-31 (2년),노인여가복지시설,해당,해당,해당없음,해당없음,해당없음,해당없음,37.75584638,127.1097485,경기도 의정부시 용민로 99
330,경기도,의정부시,녹양종합사회복지관,"경기 의정부시 체육로 254 (녹양동, 녹양종합사회복지관)",031-826-7400,2023-01-01 ~ 2024-12-31 (2년),사회복지관,해당없음,해당없음,해당없음,해당없음,해당없음,해당없음,37.76086568,127.0355894,경기 의정부시 체육로 254
331,경기도,의정부시,나눔의샘재가노인지원서비스센터,경기 의정부시 부용로210번길 15 (신곡동) 1층,031-851-5695,2023-01-01 ~ 2024-12-31 (2년),재가노인복지시설,해당없음,해당없음,해당없음,해당,해당없음,해당없음,37.74942104,127.078857,경기 의정부시 부용로210번길 15  1층
332,경기도,이천시,이천시노인종합복지관,경기도 이천시 남천로 31 종합복지타운 본관1층,031-636-0190,2023-01-01 ~ 2024-12-31 (2년),노인여가복지시설,해당,해당,해당없음,해당없음,해당없음,해당없음,37.27823858,127.4410727,경기도 이천시 남천로 31 종합복지타운 본관1층
333,경기도,이천시,청미노인복지관,경기 이천시 장호원읍 서동대로8965번길 57 (청미복지타운),031-641-4260,2024-01-01 ~ 2024-12-31 (1년),노인여가복지시설,해당없음,해당없음,해당없음,해당없음,해당없음,해당없음,37.11566634,127.6295774,경기 이천시 장호원읍 서동대로8965번길 57
334,경기도,파주시,파주시문산종합사회복지관,경기도 파주시 문산읍 통일로 1680 문산행복센터(내) 파주시문산종합사회복지관,031-934-2000,2024-01-01 ~ 2025-12-31 (2년),사회복지관,해당,해당없음,해당없음,해당없음,해당없음,해당없음,37.85654905,126.7909555,경기도 파주시 문산읍 통일로 1680 문산행복센터 파주시문산종합사회복지관
335,경기도,파주시,파주시은빛사랑채,경기도 파주시 법원읍 술이홀로 832 파주시은빛사랑채 2층,031-958-1453,2024-01-01 ~ 2025-12-31 (2년),재가노인복지시설,해당없음,해당없음,해당,해당,해당없음,해당,37.84688658,126.8691554,경기도 파주시 법원읍 술이홀로 832 파주시은빛사랑채 2층
336,경기도,파주시,파주시노인복지관,경기도 파주시 가나무로 130(금릉동 428번지),031-943-0730,2024-01-01 ~ 2025-12-31 (2년),노인여가복지시설,해당없음,해당,해당없음,해당없음,해당없음,해당없음,37.75384482,126.7798278,경기도 파주시 가나무로 130
337,경기도,파주시,파주시운정종합사회복지관,"경기 파주시 운정중앙로 200 (목동동, 물향기마을 1단지 아파트)",031-957-8253,2024-01-01 ~ 2025-12-31 (2년),사회복지관,해당없음,해당없음,해당없음,해당없음,해당없음,해당없음,37.72824552,126.7258083,경기 파주시 운정중앙로 200
338,경기도,평택시,평택노인복지센터,경기도 평택시 비전3로 15 평택노인복지센터,031-657-8072,2023-01-01 ~ 2025-12-31 (3년),재가노인복지시설,해당,해당,해당,해당,해당없음,해당없음,37.00137658,127.1023237,경기도 평택시 비전3로 15 평택노인복지센터
339,경기도,평택시,안중소규모요양시설,경기도 평택시 안중읍 안중로 69,031-686-6855,2023-01-01 ~ 2025-12-31 (3년),요양시설,해당없음,해당없음,해당,해당없음,해당없음,해당없음,36.9879323,126.9246489,경기도 평택시 안중읍 안중로 69
340,경기도,평택시,평택북부노인복지관,경기도 평택시 서정로 295번지 북부복지타운 3층,031-615-3935,2023-01-01 ~ 2025-12-31 (3년),노인여가복지시설,해당없음,해당없음,해당없음,해당없음,해당없음,해당없음,37.0657141,127.0664973,경기도 평택시 서정로 295번지 북부복지타운 3층
341,경기도,포천시,포천종합사회복지관 부설 포천시무한돌봄희망복지센터,경기도 포천시 영중면 양문로 151 2층,031-534-5163,2024-01-01 ~ 2026-12-31 (3년),사회복지법인,해당없음,해당없음,해당없음,해당없음,해당없음,해당없음,38.00542802,127.2446602,경기도 포천시 영중면 양문로 151 2층
342,경기도,포천시,포천나눔의집 돌봄센터,경기도 포천시 신북면 중앙로 207번길 23,031-535-1044,2024-01-01 ~ 2026-12-31 (3년),재가노인복지시설,해당없음,해당없음,해당없음,해당,해당없음,해당없음,37.90475941,127.2061844,경기도 포천시 신북면 중앙로 207번길 23
343,경기도,포천시,포천시노인복지관,경기도 포천시 군내면 청성로 5,031-8083-7777,2024-01-01 ~ 2026-12-31 (3년),노인여가복지시설,해당,해당,해당없음,해당없음,해당없음,해당없음,37.90019093,127.2139767,경기도 포천시 군내면 청성로 5
344,경기도,하남시,영락재가노인지원서비스센터,경기도 하남시 안터로 55-1 영락재가노인지원서비스센터 1층,031-794-9368,2024-01-01 ~ 2025-12-31 (2년),재가노인복지시설,해당,해당,해당없음,해당,해당없음,해당없음,37.54630143,127.1851951,경기도 하남시 안터로 55-1 영락재가노인지원서비스센터 1층
345,경기도,화성시,화성시동탄노인복지관,경기도 화성시 동탄대로8길 36 C동 1층,031-8077-1888,2024-01-01 ~ 2027-12-31 (4년),노인여가복지시설,해당없음,해당,해당없음,해당없음,해당없음,해당없음,37.17054785,127.1104567,경기도 화성시 동탄대로8길 36 C동 1층
346,경기도,화성시,화성시서부노인복지관,"경기도 화성시 남양읍 시청로 155, 모두누림센터4층, 화성시서부노인복지관",031-8077-2605,2022-01-01 ~ 2026-12-31 (5년),노인여가복지시설,해당없음,해당,해당없음,해당,해당없음,해당없음,37.1988539,126.8286271,경기도 화성시 남양읍 시청로 155
347,경기도,화성시,화성시남부노인복지관,경기도 화성시 향남읍 토성로 37-22,031-366-5678,2024-01-01 ~ 2027-12-31 (4년),노인여가복지시설,해당,해당,해당없음,해당없음,해당없음,해당,37.11701298,126.9609335,경기도 화성시 향남읍 토성로 37-22
348,경기도,화성시,화성시서부종합사회복지관,경기도 화성시 송산면 사강로 145,031-366-7390,2024-01-01 ~ 2026-12-31 (3년),사회복지관,해당없음,해당없음,해당없음,해당없음,해당없음,해당없음,37.21302685,126.7320235,경기도 화성시 송산면 사강로 145
349,경기도,화성시,화성재가노인지원서비스센터,경기 화성시 비봉면 새비봉동로 37 (화성비봉LH1단지아파트) 관리사무소 건물내,031-357-3801,2024-01-01 ~ 2024-12-31 (1년),재가노인복지시설,해당없음,해당없음,해당없음,해당,해당없음,해당없음,37.24458659,126.8759623,경기 화성시 비봉면 새비봉동로 37  관리사무소 건물내
350,경기도,화성시,화성시정조효노인복지관,경기 화성시 용주로152번길 27 (송산동),031-898-9833,2024-01-01 ~ 2028-12-31 (5년),노인여가복지시설,해당,해당,해당없음,해당없음,해당없음,해당없음,37.21194962,127.0027277,경기 화성시 용주로152번길 27
351,강원특별자치도,강릉시,사회적협동조합마음별,"강원도 강릉시 홍제로 63-1, 4층",033-642-3438,2024-01-01 ~ 2026-12-31 (3년),협동조합,해당,해당없음,해당없음,해당없음,해당없음,해당없음,37.75322172,128.8852404,강원도 강릉시 홍제로 63-1
352,강원특별자치도,강릉시,엘림의료복지사회적협동조합,강원특별자치도 강릉시 옥천로19번길 27 (옥천동) 2층,033-641-8841,2024-01-01 ~ 2026-12-31 (3년),협동조합,해당,해당,해당없음,해당없음,해당없음,해당없음,37.75582081,128.9009058,강원특별자치도 강릉시 옥천로19번길 27  2층
353,강원특별자치도,강릉시,가가호호맞춤돌봄지원센터,"강원특별자치도 강릉시 산양큰길 20, 3층 (포남동)",033-653-4004,2024-01-01 ~ 2026-12-31 (3년),사회복지법인,해당,해당없음,해당없음,해당없음,해당없음,해당없음,37.77901779,128.9157643,강원특별자치도 강릉시 산양큰길 20
354,강원특별자치도,동해시,동해시노인종합복지관 U-Care센터,"강원특별자치도 동해시 선돌길 19 (단봉동, 동해시U-Care센터)",033-520-5100,2023-01-01 ~ 2025-12-31 (3년),노인여가복지시설,해당,해당,해당,해당,해당없음,해당없음,37.48071001,129.1244979,강원특별자치도 동해시 선돌길 19
355,강원특별자치도,삼척시,삼척시종합사회복지관,강원도 삼척시 원당로2길 72-6 노인맞춤돌봄서비스사업팀(3층),033-576-0923,2023-01-01 ~ 2025-12-31 (3년),사회복지관,해당,해당,해당없음,해당없음,해당없음,해당없음,37.43741072,129.1528463,강원도 삼척시 원당로2길 72-6 노인맞춤돌봄서비스사업팀
356,강원특별자치도,삼척시,삼척시노인복지관,강원특별자치도 삼척시 봉황로 85 삼척시노인복지관,033-575-1389,2023-01-01 ~ 2025-12-31 (3년),노인여가복지시설,해당,해당없음,해당없음,해당없음,해당없음,해당없음,37.44560809,129.1715242,강원특별자치도 삼척시 봉황로 85 삼척시노인복지관
357,강원특별자치도,속초시,속초시노인복지관,"강원 속초시 동해대로 4219 (교동) 2층 노인복지관 노인맞춤돌봄서비스 사무실(구, 바르게 살기 운동본부)",033-633-3341,2024-01-01 ~ 2028-12-31 (5년),노인여가복지시설,해당없음,해당없음,해당,해당,해당없음,해당,38.19606865,128.5771067,강원 속초시 동해대로 4219
358,강원특별자치도,속초시,속초U-care센터,강원 속초시 동해대로3930번길 24-3 (조양동),033-635-0091,2024-01-01 ~ 2028-12-31 (5년),노인맞춤돌봄전담시설,해당,해당,해당없음,해당없음,해당없음,해당,38.18547945,128.6030293,강원 속초시 동해대로3930번길 24-3
359,강원특별자치도,원주시,원주가톨릭노인복지센터,강원도 원주시 봉산로 103,033-744-0677,2023-01-01 ~ 2025-12-31 (3년),재가노인복지시설,해당,해당없음,해당없음,해당,해당없음,해당없음,37.34683901,127.9573253,강원도 원주시 봉산로 103
360,강원특별자치도,원주시,명륜종합사회복지관,강원도 원주시 예술관길 25,033-762-8131,2023-01-01 ~ 2025-12-31 (3년),사회복지관,해당,해당없음,해당,해당,해당없음,해당없음,37.33265615,127.9421272,강원도 원주시 예술관길 25
361,강원특별자치도,원주시,원주종합사회복지관,강원도 원주시 육판길 1,033-732-4006,2023-01-01 ~ 2025-12-31 (3년),사회복지관,해당,해당없음,해당없음,해당없음,해당없음,해당없음,37.35721667,127.9677822,강원도 원주시 육판길 1
362,강원특별자치도,원주시,밥상공동체종합사회복지관,강원도 원주시 일산로 81-2,033-766-4933,2023-01-01 ~ 2025-12-31 (3년),사회복지관,해당없음,해당없음,해당없음,해당없음,해당없음,해당없음,37.34597186,127.9505957,강원도 원주시 일산로 81-2
363,강원특별자치도,원주시,원주시노인종합복지관,"강원 원주시 동부순환로 9-6 (단구동, 원주노인종합복지관)",033-766-0601,2023-01-01 ~ 2025-12-31 (3년),노인여가복지시설,해당없음,해당없음,해당없음,해당없음,해당없음,해당없음,37.3186659,127.9693098,강원 원주시 동부순환로 9-6
364,강원특별자치도,춘천시,춘천동부노인복지관,강원특별자치도 춘천시 동면 세실로 250 동부노인복지관 지하 맞춤돌봄서비스 사무실,033-255-8866,2023-01-01 ~ 2025-12-31 (3년),노인여가복지시설,해당,해당,해당없음,해당없음,해당없음,해당없음,37.87991631,127.7578788,강원특별자치도 춘천시 동면 세실로 250 동부노인복지관 지하 맞춤돌봄서비스 사무실
365,강원특별자치도,춘천시,춘천남부노인복지관,"강원특별자치도 춘천시 방송길 86 (온의동, 강남동행정복지센터, 춘천남부노인복지관)",033-241-5601,2024-01-01 ~ 2025-12-31 (2년),노인여가복지시설,해당,해당없음,해당없음,해당,해당없음,해당없음,37.86785249,127.7188943,강원특별자치도 춘천시 방송길 86
366,강원특별자치도,춘천시,춘천북부노인복지관,강원도 춘천시 충열로 124(우두동),033-255-9877,2024-01-01 ~ 2025-12-31 (2년),노인여가복지시설,해당,해당없음,해당없음,해당없음,해당없음,해당없음,37.9014421,127.7325645,강원도 춘천시 충열로 124
367,강원특별자치도,춘천시,춘천효자종합사회복지관,"강원특별자치도 춘천시 공지로 234-16 (효자동, 효자주공8단지아파트)",033-261-1790,2024-01-01 ~ 2025-12-31 (2년),사회복지관,해당없음,해당없음,해당,해당,해당없음,해당없음,37.86394816,127.7390557,강원특별자치도 춘천시 공지로 234-16
368,강원특별자치도,태백시,태백노인복지센터,"강원도 태백시 황지로99, 3층",033-553-9425,2023-01-01 ~ 2025-12-31 (3년),재가노인복지시설,해당,해당,해당,해당,해당,해당,37.16768303,128.9917358,강원도 태백시 황지로99
369,강원특별자치도,태백시,태백시노인복지관,"강원특별자치도 태백시 황장목이길 23 (문곡동, 태백시노인복지관)",033-581-5117,2023-01-09 ~ 2025-12-31 (3년),노인여가복지시설,해당,해당없음,해당없음,해당없음,해당없음,해당,37.13071921,129.0034282,강원특별자치도 태백시 황장목이길 23
370,강원특별자치도,고성군,고성군노인복지관,강원특별자치도 고성군 간성읍 간성로67번길 13 (고성군노인복지관),033-682-8007,2022-01-01 ~ 2024-12-31 (3년),노인여가복지시설,해당없음,해당없음,해당없음,해당없음,해당없음,해당없음,38.37830971,128.4677077,강원특별자치도 고성군 간성읍 간성로67번길 13
371,강원특별자치도,양구군,사회복지법인 아름다운동행,강원 양구군 국토정중앙면 정중앙로 294,033-481-2417,2020-01-01 ~ 2024-12-31 (5년),사회복지법인,해당없음,해당,해당,해당,해당없음,해당없음,38.10657766,128.0314704,강원 양구군 국토정중앙면 정중앙로 294
372,강원특별자치도,양구군,양구사랑나눔복지회,강원도 양구군 양구읍 양구새싹로 7-11,033-482-0999,2024-01-01 ~ 2026-12-31 (3년),사회복지법인,해당없음,해당,해당,해당,해당없음,해당없음,38.10272436,127.9899025,강원도 양구군 양구읍 양구새싹로 7-11
373,강원특별자치도,양양군,행복노인복지센터,강원도 양양군 양양읍 북문길 35-11,033-673-2341,2023-01-01 ~ 2025-12-31 (3년),재가노인복지시설,해당없음,해당,해당,해당,해당없음,해당없음,38.07854007,128.6196205,강원도 양양군 양양읍 북문길 35-11
374,강원특별자치도,영월군,영월돌봄사회적협동조합,강원도 영월군 영월읍 단종로 113,033-373-2581,2023-01-01 ~ 2025-12-31 (3년),협동조합,해당없음,해당,해당없음,해당없음,해당없음,해당없음,37.19482834,128.4548855,강원도 영월군 영월읍 단종로 113
375,강원특별자치도,영월군,영월군사회복지협의회,강원특별자치도 영월군 영월읍 봉래산로 189 영월군통합돌봄센터,033-373-0199,2023-01-01 ~ 2025-12-31 (3년),사회복지협의회,해당,해당없음,해당없음,해당없음,해당없음,해당없음,37.19974032,128.4738077,강원특별자치도 영월군 영월읍 봉래산로 189 영월군통합돌봄센터
376,강원특별자치도,인제군,인제군사회복지관,강원도 인제군 인제읍 비봉로44번길 100. 인제군사회복지관2층,033-461-0660,2023-01-01 ~ 2025-12-31 (3년),사회복지관,해당,해당,해당없음,해당없음,해당없음,해당없음,38.06100211,128.1649069,강원도 인제군 인제읍 비봉로44번길 100. 인제군사회복지관2층
377,강원특별자치도,정선군,정선군 사회복지협의회,강원특별자치도 정선군 정선읍 녹송4길 71 (정선군 업무지원센터) 2층 정선군사회복지협의회,033-562-2448,2024-01-01 ~ 2028-12-31 (5년),사회복지협의회,해당없음,해당없음,해당없음,해당없음,해당없음,해당없음,37.38406739,128.6738833,강원특별자치도 정선군 정선읍 녹송4길 71  2층 정선군사회복지협의회
378,강원특별자치도,정선군,새별이노인복지센터,강원 정선군 임계면 새벼리길 83-29 1층,033-562-9606,2024-01-01 ~ 2024-12-31 (1년),재가노인복지시설,해당없음,해당없음,해당없음,해당,해당없음,해당,37.49626457,128.8668751,강원 정선군 임계면 새벼리길 83-29 1층
379,강원특별자치도,철원군,철원군사회복지협의회,강원 철원군 갈말읍 명성로 154 (신철원버스터미널) 2층,033-452-4567,2022-01-01 ~ 2023-12-31 (2년),사회복지협의회,해당없음,해당,해당없음,해당없음,해당없음,해당,38.14536817,127.3081484,강원 철원군 갈말읍 명성로 154  2층
380,강원특별자치도,철원군,엘림노인복지센터,강원도 철원군 동송읍 이평2로 31,033-455-4610,2024-01-01 ~ 2025-12-31 (2년),재가노인복지시설,해당없음,해당없음,해당,해당,해당없음,해당없음,38.20712934,127.2227994,강원도 철원군 동송읍 이평2로 31
381,강원특별자치도,평창군,평창노인복지센터,강원 평창군 평창읍 종부로 61,033-334-0116,2024-01-01 ~ 2025-12-31 (6년),재가노인복지시설,해당없음,해당,해당없음,해당,해당없음,해당없음,37.35596696,128.3908745,강원 평창군 평창읍 종부로 61
382,강원특별자치도,홍천군,홍천군노인복지관,강원도 홍천군 홍천읍 태학여내길 80-3,033-430-8700,2023-07-01 ~ 2027-06-30 (5년),노인여가복지시설,해당없음,해당,해당없음,해당없음,해당없음,해당없음,37.7187889,127.9036152,강원도 홍천군 홍천읍 태학여내길 80-3
383,강원특별자치도,홍천군,사회복지법인 중앙원,강원특별자치도 홍천군 북방면 하화계길45번길 9 2층,033-433-7194,2024-01-01 ~ 2028-06-30 (5년),사회복지법인,해당없음,해당없음,해당없음,해당없음,해당,해당없음,37.69303759,127.8562153,강원특별자치도 홍천군 북방면 하화계길45번길 9 2층
384,강원특별자치도,화천군,화천군청,강원도 화천군 화천읍 화천새싹길45 화천군청 주민복지과 경로복지계,033-440-2349,2023-01-01 ~ 2025-12-31 (3년),직영(지자체),해당없음,해당,해당없음,해당없음,해당없음,해당,38.10562069,127.7079275,강원도 화천군 화천읍 화천새싹길45 화천군청 주민복지과 경로복지계
385,강원특별자치도,횡성군,횡성노인복지센터,강원도 횡성군 둔내면 둔내로 93,033-344-7173,2024-01-01 ~ 2026-12-31 (3년),재가노인복지시설,해당,해당없음,해당없음,해당,해당없음,해당,37.51139594,128.2199741,강원도 횡성군 둔내면 둔내로 93
386,강원특별자치도,횡성군,횡성군사회복지협의회,강원특별자치도 횡성군 횡성읍 읍하리 500-1,033-342-1104,2024-01-01 ~ 2026-12-31 (3년),사회복지협의회,해당없음,해당없음,해당없음,해당없음,해당없음,해당없음,37.4941779,127.9834715,강원특별자치도 횡성군 횡성읍 읍하리 500-1
387,충청북도,괴산군,괴산군청,충청북도 괴산군 괴산읍 읍내로3길 11,043-832-8307,2024-01-01 ~ 2024-12-31 (1년),직영(지자체),해당없음,해당없음,해당없음,해당없음,해당없음,해당없음,36.8062641,127.7915509,충청북도 괴산군 괴산읍 읍내로3길 11
388,충청북도,단양군,단양노인복지관,충청북도 단양군 단양읍 별곡1로 17,043-421-7100,2024-01-01 ~ 2025-12-31 (2년),노인여가복지시설,해당없음,해당,해당없음,해당없음,해당없음,해당,36.9848571,128.3675049,충청북도 단양군 단양읍 별곡1로 17
389,충청북도,보은군,보은군노인장애인복지관,충청북도 보은군 보은읍 뱃들4길 11-10,043-544-5446,2024-01-01 ~ 2027-12-31 (4년),노인여가복지시설,해당없음,해당,해당없음,해당없음,해당없음,해당없음,36.48886354,127.7246037,충청북도 보은군 보은읍 뱃들4길 11-10
390,충청북도,영동군,영동군노인복지관,충청북도 영동군 영동읍 반곡동길 13,043-742-7784,2023-02-01 ~ 2025-12-31 (3년),노인여가복지시설,해당없음,해당,해당없음,해당없음,해당없음,해당,36.15849304,127.7792796,충청북도 영동군 영동읍 반곡동길 13
391,충청북도,영동군,영동군사회복지협의회,충청북도 영동군 영동읍 눈어치1로 71 사원아파트상가 1층,043-745-2104,2023-02-01 ~ 2025-12-31 (3년),사회복지협의회,해당없음,해당없음,해당없음,해당없음,해당없음,해당,36.18948711,127.7766119,충청북도 영동군 영동읍 눈어치1로 71 사원아파트상가 1층
392,충청북도,영동군,수가성재가노인복지센터,충북 영동군 영동읍 오정1길 16 (수가성재단요양원),043-745-3190,2023-02-01 ~ 2025-12-31 (3년),재가노인복지시설,해당없음,해당,해당없음,해당,해당없음,해당,36.19367686,127.7651534,충북 영동군 영동읍 오정1길 16
393,충청북도,옥천군,옥천군노인복지관,충청북도 옥천군 옥천읍 삼양로8길 9,043-733-2500,2023-01-01 ~ 2025-12-31 (3년),노인여가복지시설,해당없음,해당,해당없음,해당,해당없음,해당,36.30394633,127.5696704,충청북도 옥천군 옥천읍 삼양로8길 9
394,충청북도,음성군,음성군노인복지관,충청북도 음성군 금왕읍 백야로14,043-883-2470,2024-01-01 ~ 2027-12-31 (4년),노인여가복지시설,해당없음,해당,해당없음,해당없음,해당없음,해당없음,36.98729615,127.5964107,충청북도 음성군 금왕읍 백야로14
395,충청북도,음성군,음성군사회복지협의회,"충북 음성군 음성읍 중앙로40번길 9-1 더테라스시티 201호, 202호",043-872-8288,2024-01-01 ~ 2027-12-31 (4년),사회복지협의회,해당없음,해당없음,해당없음,해당없음,해당없음,해당없음,36.92824618,127.6901784,충북 음성군 음성읍 중앙로40번길 9-1 더테라스시티 201호
396,충청북도,제천시,제천시노인종합복지관,"충북 제천시 의림대로 174 (중앙로2가, 노인 종합복지관)",043-652-3457,2024-01-01 ~ 2025-12-31 (2년),노인여가복지시설,해당,해당,해당없음,해당없음,해당없음,해당,37.14274457,128.2136236,충북 제천시 의림대로 174
397,충청북도,제천시,명락노인종합복지관,충청북도 제천시 내제로 5길 12,043-648-3337,2024-01-01 ~ 2025-12-31 (2년),노인여가복지시설,해당,해당,해당없음,해당없음,해당없음,해당,37.13276896,128.2034467,충청북도 제천시 내제로 5길 12
398,충청북도,제천시,제천종합사회복지관,"충북 제천시 용두대로23길 14 (하소동, 하소주공4단지아파트)",043-644-2983,2024-01-01 ~ 2025-12-31 (2년),사회복지관,해당없음,해당,해당없음,해당없음,해당없음,해당,37.14624168,128.1972588,충북 제천시 용두대로23길 14
399,충청북도,증평군,삼보사회복지관,충청북도 증평군 증평읍 창신로85 1층,043-836-6040,2023-01-01 ~ 2024-12-31 (2년),사회복지관,해당없음,해당없음,해당없음,해당없음,해당없음,해당없음,36.77851945,127.5812876,충청북도 증평군 증평읍 창신로85 1층
400,충청북도,진천군,진천군노인복지관,충청북도 진천군 진천읍 문화7길 12-6,043-533-2715,2023-01-01 ~ 2025-12-31 (3년),노인여가복지시설,해당없음,해당,해당없음,해당,해당없음,해당,36.8615535,127.4396077,충청북도 진천군 진천읍 문화7길 12-6
401,충청북도,진천군,생거진천노인복지센터,충청북도 진천군 문백면 문덕1길 63,043-532-9969,2023-01-01 ~ 2025-12-31 (3년),재가노인복지시설,해당없음,해당,해당없음,해당,해당없음,해당없음,36.84401081,127.4564623,충청북도 진천군 문백면 문덕1길 63
402,충청북도,청주시,청주시독거노인통합지원센터,충청북도 청주시 상당구 단재로 395,043-287-1441,2023-01-01 ~ 2025-12-31 (3년),지방자치단체 사회복지시설,해당,해당,해당없음,해당없음,해당없음,해당없음,36.59906899,127.6163101,충청북도 청주시 상당구 단재로 395
403,충청북도,청주시,청주서원노인복지관,충청북도 청주시 서원구 원흥로 11-10,043-238-3786,2023-01-01 ~ 2025-12-31 (3년),노인여가복지시설,해당없음,해당없음,해당없음,해당없음,해당없음,해당없음,36.61327053,127.4689834,충청북도 청주시 서원구 원흥로 11-10
404,충청북도,청주시,청주가경노인복지관,충청북도 청주시 흥덕구 서부로 1225 청주가경노인복지관,043-236-0111,2023-01-01 ~ 2025-12-31 (3년),노인여가복지시설,해당,해당없음,해당없음,해당없음,해당없음,해당없음,36.61174516,127.4367361,충청북도 청주시 흥덕구 서부로 1225 청주가경노인복지관
405,충청북도,청주시,우암소규모노인종합센터,충청북도 청주시 흥덕구 무심서로1099번길 130 (청주시 흥덕구 원평동 108-1번지),043-215-2496,2023-01-01 ~ 2025-12-31 (3년),재가노인복지시설,해당없음,해당없음,해당없음,해당,해당없음,해당없음,36.67438264,127.4436833,충청북도 청주시 흥덕구 무심서로1099번길 130
406,충청북도,청주시,사회적협동조합 휴먼케어,충북 청주시 청원구 충청대로 93 (율량동) 3층,043-212-9194,2023-01-01 ~ 2025-12-31 (3년),협동조합,해당,해당없음,해당,해당없음,해당없음,해당없음,36.66482789,127.4928773,충북 청주시 청원구 충청대로 93  3층
407,충청북도,청주시,목령종합사회복지관,충청북도 청주시 청원구 오창읍 중심상업2로 32,043-216-3060,2023-01-01 ~ 2025-12-31 (3년),사회복지관,해당없음,해당없음,해당없음,해당없음,해당없음,해당없음,36.71438735,127.4303862,충청북도 청주시 청원구 오창읍 중심상업2로 32
408,충청북도,충주시,충주시노인복지관,충청북도 충주시 대가미13길 20,043-857-8683,2023-01-01 ~ 2025-12-31 (3년),노인여가복지시설,해당,해당없음,해당없음,해당없음,해당없음,해당없음,36.9810235,127.926731,충청북도 충주시 대가미13길 20
409,충청북도,충주시,사회적협동조합 충주돌봄,충북 충주시 예성로 130 (용산동) 2층,043-855-2890,2023-01-01 ~ 2025-12-31 (3년),협동조합,해당,해당없음,해당없음,해당없음,해당없음,해당없음,36.96852865,127.9337728,충북 충주시 예성로 130  2층
410,충청북도,충주시,충주종합사회복지관,"충북 충주시 주공길 7 (연수동, 충주종합사회복지관)",043-855-3011,2023-01-01 ~ 2025-12-31 (3년),사회복지관,해당없음,해당,해당없음,해당없음,해당없음,해당없음,36.98808554,127.9364151,충북 충주시 주공길 7
411,충청남도,계룡시,계룡시노인복지관,충청남도 계룡시 금암로 182,042-841-2103,2022-01-01 ~ 2024-12-31 (3년),노인여가복지시설,해당,해당,해당없음,해당없음,해당없음,해당없음,36.27538379,127.2561819,충청남도 계룡시 금암로 182
412,충청남도,공주시,금강종합사회복지관,충청남도 공주시 우금티로 709-14,041-856-6110,2024-01-01 ~ 2026-12-31 (3년),사회복지관,해당없음,해당없음,해당없음,해당없음,해당없음,해당없음,36.44315129,127.1240785,충청남도 공주시 우금티로 709-14
413,충청남도,공주시,공주시노인종합복지관,충청남도 공주시 당간지주길 7,041-852-8861,2024-01-01 ~ 2026-12-31 (3년),노인여가복지시설,해당없음,해당없음,해당없음,해당없음,해당없음,해당,36.45209055,127.1221273,충청남도 공주시 당간지주길 7
414,충청남도,공주시,공주노인복지센터,충청남도 공주시 한적2길 41-20,041-853-6700,2024-01-01 ~ 2026-12-31 (3년),재가노인복지시설,해당,해당,해당없음,해당,해당없음,해당없음,36.4803274,127.1399911,충청남도 공주시 한적2길 41-20
415,충청남도,공주시,공주효센터,충청남도 공주시 이인면 검바위로1,041-732-5550,2024-01-01 ~ 2026-12-31 (3년),요양시설,해당없음,해당없음,해당없음,해당없음,해당없음,해당없음,36.3454239,127.0508457,충청남도 공주시 이인면 검바위로1
416,충청남도,금산군,금산군청,충청남도 금산군 금산읍 군청길13 주민복지지원과 노인팀,041-750-2167,2020-01-01 ~ 2024-12-31 (5년),직영(지자체),해당없음,해당없음,해당없음,해당없음,해당없음,해당없음,36.10890945,127.4877989,충청남도 금산군 금산읍 군청길13 주민복지지원과 노인팀
417,충청남도,논산시,논산시어르신돌봄센터,충남 논산시 해월로144번길 37 (반월동),041-746-5802,2024-01-01 ~ 2028-12-31 (5년),직영(지자체),해당없음,해당,해당없음,해당없음,해당없음,해당없음,36.20261099,127.0845723,충남 논산시 해월로144번길 37
418,충청남도,당진시,당진시노인복지관,충청남도 당진시 시청1로 38 당진시노인복지관,041-360-3100,2024-01-01 ~ 2028-12-31 (5년),노인여가복지시설,해당없음,해당,해당없음,해당없음,해당없음,해당없음,36.89165032,126.6434439,충청남도 당진시 시청1로 38 당진시노인복지관
419,충청남도,당진시,당진시남부노인복지관,충청남도 당진시 합덕읍 예덕로 411,041-363-5330,2024-01-01 ~ 2028-12-31 (5년),노인여가복지시설,해당없음,해당없음,해당없음,해당없음,해당없음,해당없음,36.79705489,126.7503288,충청남도 당진시 합덕읍 예덕로 411
420,충청남도,당진시,송산사회복지관,충청남도 당진시 송산면 장갈길 15,041-353-7306,2024-01-01 ~ 2027-12-31 (4년),사회복지관,해당없음,해당없음,해당없음,해당없음,해당없음,해당없음,36.93463575,126.6793096,충청남도 당진시 송산면 장갈길 15
421,충청남도,보령시,보령댐노인복지관,충청남도 보령시 미산면 판미로 1471,041-931-8490,2022-01-01 ~ 2024-12-31 (3년),노인여가복지시설,해당없음,해당없음,해당없음,해당없음,해당없음,해당없음,36.25631149,126.6749739,충청남도 보령시 미산면 판미로 1471
422,충청남도,보령시,보령노인종합복지관,충청남도 보령시 대천로 113(죽정동),041-931-7677,2022-01-01 ~ 2024-12-31 (3년),노인여가복지시설,해당,해당,해당없음,해당,해당없음,해당없음,36.35604917,126.6038983,충청남도 보령시 대천로 113
423,충청남도,보령시,보령지역자활센터,충청남도 보령시 원동1길 95(2층),041-936-8509,2022-01-01 ~ 2024-12-31 (3년),지역자활센터,해당없음,해당없음,해당,해당없음,해당없음,해당없음,36.35030449,126.6001732,충청남도 보령시 원동1길 95
424,충청남도,부여군,부여노인복지센터,충청남도 부여군 부여읍 청마로 93,041-836-3605,2023-01-01 ~ 2025-12-31 (3년),재가노인복지시설,해당없음,해당없음,해당,해당,해당없음,해당없음,36.28260455,126.9513219,충청남도 부여군 부여읍 청마로 93
425,충청남도,부여군,부여돌보미사회적협동조합,충남 부여군 구룡면 흥수로183번길 13,041-833-1887,2023-01-01 ~ 2025-12-31 (3년),협동조합,해당없음,해당없음,해당없음,해당없음,해당없음,해당없음,36.25232174,126.8113253,충남 부여군 구룡면 흥수로183번길 13
426,충청남도,부여군,동산노인복지센터,충남 부여군 규암면 계백로 41-3,,2023-01-01 ~ 2025-12-31 (3년),재가노인복지시설,해당없음,해당없음,해당,해당,해당없음,해당없음,36.27598653,126.8875951,충남 부여군 규암면 계백로 41-3
427,충청남도,부여군,부여청룡나눔사업단,충남 부여군 규암면 진변로 172-64,041-835-5550,2023-01-01 ~ 2025-12-31 (3년),사회복지법인,해당없음,해당없음,해당없음,해당없음,해당없음,해당없음,36.28856529,126.8922802,충남 부여군 규암면 진변로 172-64
428,충청남도,서산시,서산노인복지센터,충남 서산시 지곡면 도성로 369-7,041-669-9331,2024-01-01 ~ 2024-12-31 (1년),재가노인복지시설,해당,해당없음,해당,해당,해당없음,해당없음,36.87250288,126.421049,충남 서산시 지곡면 도성로 369-7
429,충청남도,서산시,엘림재가노인복지센터,충청남도 서산시 쌍연북3길 33(엘림재가노인복지센터 3층),041-664-0661,2023-01-01 ~ 2024-12-31 (2년),재가노인복지시설,해당없음,해당없음,해당,해당,해당없음,해당없음,36.78772465,126.4676233,충청남도 서산시 쌍연북3길 33
430,충청남도,서천군,서천노인복지센터,충청남도 서천군 서천읍 구암신송로 138-16,041-952-3500,2022-01-01 ~ 2024-12-31 (3년),재가노인복지시설,해당,해당없음,해당,해당,해당없음,해당없음,36.07667669,126.6698997,충청남도 서천군 서천읍 구암신송로 138-16
431,충청남도,서천군,서천군노인복지관,충청남도 서천군 종천면 충서로 302번길 88-26,041-950-1233,2022-01-01 ~ 2024-12-31 (3년),노인여가복지시설,해당,해당,해당없음,해당없음,해당없음,해당,36.11074642,126.6564545,충청남도 서천군 종천면 충서로 302번길 88-26
432,충청남도,아산시,아산시노인종합복지관,충청남도 아산시 남산로 10,041-544-1409,2024-01-01 ~ 2028-12-31 (5년),노인여가복지시설,해당,해당,해당없음,해당,해당없음,해당,36.782022,126.9953173,충청남도 아산시 남산로 10
433,충청남도,아산시,아산종합사회복지관,충청남도 아산시 영인면 아산온천로 3번길 8,041-542-2308,2021-01-01 ~ 2028-12-31 (8년),사회복지관,해당없음,해당,해당없음,해당없음,해당없음,해당,36.85405781,126.958727,충청남도 아산시 영인면 아산온천로 3번길 8
434,충청남도,아산시,온양노인복지센터,충청남도 아산시 모종로 110 (온양노인복지센터),041-543-4411,2024-01-01 ~ 2028-12-31 (5년),재가노인복지시설,해당없음,해당없음,해당없음,해당없음,해당없음,해당없음,36.78539477,127.0291033,충청남도 아산시 모종로 110
435,충청남도,예산군,예산군노인종합복지관,충청남도 예산군 예산읍 벚꽃로 214-11,041-330-2901,2023-01-01 ~ 2024-12-31 (2년),노인여가복지시설,해당없음,해당,해당,해당,해당없음,해당없음,36.69673536,126.8371807,충청남도 예산군 예산읍 벚꽃로 214-11
436,충청남도,예산군,좋은재가노인복지센터,충청남도 예산군 예산읍 아리랑로 17 (일성빌딩) 2층,041-333-6080,2023-01-01 ~ 2024-12-31 (2년),재가노인복지시설,해당없음,해당없음,해당,해당없음,해당없음,해당없음,36.68637779,126.831519,충청남도 예산군 예산읍 아리랑로 17  2층
437,충청남도,천안시,아우내은빛복지관,충청남도 천안시 동남구 병천면 병천2로 51,041-556-6606,2024-01-01 ~ 2028-12-31 (5년),노인여가복지시설,해당없음,해당없음,해당,해당,해당없음,해당,36.76357625,127.299548,충청남도 천안시 동남구 병천면 병천2로 51
438,충청남도,천안시,천안시노인종합복지관,충청남도 천안시 서북구 미라11길 16 천안시노인종합복지관 본관,041-571-0860,2024-01-01 ~ 2028-12-31 (5년),노인여가복지시설,해당없음,해당없음,해당없음,해당,해당없음,해당없음,36.80427974,127.1292871,충청남도 천안시 서북구 미라11길 16 천안시노인종합복지관 본관
439,충청남도,천안시,천안시종합사회복지관,충남 천안시 동남구 천안대로 361 (삼룡동),041-903-3611,2024-01-01 ~ 2028-12-31 (5년),사회복지관,해당없음,해당없음,해당없음,해당없음,해당없음,해당,36.78121685,127.1641799,충남 천안시 동남구 천안대로 361
440,충청남도,청양군,청양군재가노인지원센터,충청남도 청양군 정산면 천장호길 69,041-942-0777,2024-01-01 ~ 2025-12-31 (2년),재가노인복지시설,해당없음,해당없음,해당없음,해당,해당없음,해당없음,36.41248436,126.9209682,충청남도 청양군 정산면 천장호길 69
441,충청남도,청양군,청양군사회복지관,충남 청양군 청양읍 칠갑산로 316,041-942-0788,2024-01-01 ~ 2025-12-31 (2년),사회복지관,해당없음,해당,해당없음,해당없음,해당없음,해당없음,36.44988498,126.8228852,충남 청양군 청양읍 칠갑산로 316
442,충청남도,태안군,태안노인복지관,충청남도 태안군 태안읍 후곡로 79,041-674-0215,2022-01-01 ~ 2024-12-31 (3년),노인여가복지시설,해당없음,해당,해당없음,해당없음,해당없음,해당없음,36.7459652,126.3011833,충청남도 태안군 태안읍 후곡로 79
443,충청남도,태안군,안면도노인복지관,충청남도 태안군 안면읍 승언로 16,041-675-9727,2022-01-01 ~ 2024-12-31 (3년),노인여가복지시설,해당없음,해당없음,해당없음,해당없음,해당없음,해당,36.5172875,126.3442103,충청남도 태안군 안면읍 승언로 16
444,충청남도,홍성군,홍성군노인종합복지관,충청남도 홍성군 홍성읍 내포로146번길 30-11 홍성군노인종합복지관,041-631-0960,2024-01-01 ~ 2026-12-31 (3년),노인여가복지시설,해당없음,해당,해당없음,해당없음,해당없음,해당없음,36.59717912,126.6541086,충청남도 홍성군 홍성읍 내포로146번길 30-11 홍성군노인종합복지관
445,충청남도,홍성군,올리브재가노인종합지원센터,충청남도 홍성군 홍성읍 조양로 75번길 17,041-632-0935,2024-01-01 ~ 2026-12-31 (3년),재가노인복지시설,해당없음,해당없음,해당,해당,해당없음,해당,36.60176155,126.6584376,충청남도 홍성군 홍성읍 조양로 75번길 17
446,충청남도,홍성군,청로노인종합복지센터,충청남도 홍성군 홍성읍 구항길 337,041-631-3959,2024-01-01 ~ 2026-12-31 (3년),재가노인복지시설,해당없음,해당없음,해당,해당,해당없음,해당,36.58487655,126.6256661,충청남도 홍성군 홍성읍 구항길 337
447,충청남도,세종특별자치시,세종시사회서비스원,"세종특별자치시 한누리대로 2107 (보람동, 보람종합복지센터)",044-865-4541,2024-01-01 ~ 2026-12-31 (3년),사회서비스원,해당,해당없음,해당없음,해당없음,해당,해당없음,36.4792978,127.2925415,세종특별자치시 한누리대로 2107
448,충청남도,세종특별자치시,세종재가노인지원센터,세종특별자치시 조치원읍 장안길 97-7,044-868-6004,2024-01-01 ~ 2026-12-31 (3년),재가노인복지시설,해당없음,해당,해당없음,해당,해당없음,해당,36.59816982,127.3005262,세종특별자치시 조치원읍 장안길 97-7
449,충청남도,세종특별자치시,세종도덕노인복지센터,세종특별자치시 연서면 양대길 52,044-555-9054,2024-01-01 ~ 2026-12-31 (3년),재가노인복지시설,해당없음,해당없음,해당,해당,해당없음,해당,36.5945331,127.2072378,세종특별자치시 연서면 양대길 52
450,전북특별자치도,고창군,고창군장애인복지관,전라북도 고창군 고창읍 전봉준로 88-9,063-562-3777,2023-01-01 ~ 2025-12-31 (3년),장애인복지시설,해당없음,해당없음,해당없음,해당없음,해당없음,해당없음,35.47169076,126.6753705,전라북도 고창군 고창읍 전봉준로 88-9
451,전북특별자치도,고창군,고창원광노인복지센터,전라북도 고창군 고창읍 천변남로 40 2층,063-562-3880,2023-01-01 ~ 2025-12-31 (3년),재가노인복지시설,해당없음,해당없음,해당없음,해당,해당없음,해당없음,35.43443667,126.6986561,전라북도 고창군 고창읍 천변남로 40 2층
452,전북특별자치도,고창군,고창군종합사회복지관,전라북도 고창군 고창읍 전봉준로 88-15,063-560-2151,2023-01-01 ~ 2025-12-31 (3년),사회복지관,해당없음,해당없음,해당없음,해당없음,해당없음,해당없음,35.44474225,126.6831542,전라북도 고창군 고창읍 전봉준로 88-15
453,전북특별자치도,군산시,군산나운종합사회복지관,전라북도 군산시 문화로 36,063-462-7260,2023-01-01 ~ 2025-12-31 (3년),사회복지관,해당없음,해당,해당없음,해당없음,해당없음,해당없음,35.96980757,126.7087653,전라북도 군산시 문화로 36
454,전북특별자치도,군산시,군산종합사회복지관,전라북도 군산시 칠성로 59,063-461-6556,2023-01-01 ~ 2025-12-31 (3년),사회복지관,해당,해당없음,해당없음,해당없음,해당없음,해당없음,35.96403861,126.6786526,전라북도 군산시 칠성로 59
455,전북특별자치도,군산시,군산노인종합복지관,전라북도 군산시 둔배미길 29(중앙로2가),063-442-4227,2023-01-01 ~ 2025-12-31 (3년),노인여가복지시설,해당,해당없음,해당없음,해당없음,해당없음,해당없음,35.98290245,126.71578,전라북도 군산시 둔배미길 29
456,전북특별자치도,군산시,보은재가노인통합지원센터,전라북도 군산시 임피면 임피2길 73-3,063-453-9998,2023-01-01 ~ 2025-12-31 (3년),재가노인복지시설,해당없음,해당없음,해당,해당,해당없음,해당,35.98512627,126.8517452,전라북도 군산시 임피면 임피2길 73-3
457,전북특별자치도,군산시,동부재가노인통합지원센터,전라북도 군산시 서왕길 84-7,063-453-9903,2023-01-01 ~ 2025-12-31 (3년),재가노인복지시설,해당없음,해당없음,해당,해당,해당없음,해당없음,36.01654598,126.7931047,전라북도 군산시 서왕길 84-7
458,전북특별자치도,군산시,함께하는 재가노인통합지원센터,"전라북도 군산시 두란뜸2길 3 (사정동, 금호타운2단지 상가) 205호",063-453-0884,2023-01-01 ~ 2025-12-31 (3년),재가노인복지시설,해당없음,해당없음,해당,해당,해당없음,해당없음,35.96446131,126.7503877,전라북도 군산시 두란뜸2길 3  205호
459,전북특별자치도,김제시,김제노인복지센터,전라북도 김제시 백산면 소음방2길 19-29 김제노인복지센터,063-548-7005,2022-01-01 ~ 2024-12-31 (3년),재가노인복지시설,해당없음,해당없음,해당,해당,해당없음,해당,35.84685812,126.9328607,전라북도 김제시 백산면 소음방2길 19-29 김제노인복지센터
460,전북특별자치도,김제시,김제노인종합복지관,전라북도 김제시 하동 1길 79,063-542-5550,2022-01-01 ~ 2024-12-31 (3년),노인여가복지시설,해당,해당없음,해당없음,해당없음,해당없음,해당없음,35.81471495,126.893189,전라북도 김제시 하동 1길 79
461,전북특별자치도,김제시,성암노인복지센터,전라북도 김제시 입석로 142,063-545-1005,2022-01-01 ~ 2024-12-31 (3년),재가노인복지시설,해당없음,해당없음,해당,해당,해당없음,해당없음,35.78367275,126.8738518,전라북도 김제시 입석로 142
462,전북특별자치도,남원시,남원사회복지관,"전라북도 남원시 노송로 1255-9, 남원사회복지관",063-631-5253,2023-01-01 ~ 2025-12-31 (3년),사회복지관,해당,해당없음,해당없음,해당없음,해당없음,해당,35.39624946,127.3768504,전라북도 남원시 노송로 1255-9
463,전북특별자치도,남원시,남원시노인복지관,전라북도 남원시 금동로 50 남원시노인복지관,063-625-9988,2023-01-01 ~ 2025-12-31 (3년),노인여가복지시설,해당없음,해당없음,해당없음,해당없음,해당없음,해당,35.40302022,127.3727626,전라북도 남원시 금동로 50 남원시노인복지관
464,전북특별자치도,남원시,지리산노인복지센터,전라북도 남원시 아영면 아백로 352-1,063-626-9550,2023-01-01 ~ 2025-12-31 (3년),재가노인복지시설,해당없음,해당없음,해당없음,해당,해당없음,해당없음,35.49367993,127.6033354,전라북도 남원시 아영면 아백로 352-1
465,전북특별자치도,무주군,무주노인종합복지관,전라북도 무주군 무주읍 한풍루로 425 무주노인종합복지관,063-322-1252,2023-01-01 ~ 2027-12-31 (5년),노인여가복지시설,해당없음,해당,해당없음,해당없음,해당없음,해당없음,36.00555959,127.672371,전라북도 무주군 무주읍 한풍루로 425 무주노인종합복지관
466,전북특별자치도,부안군,부안노인복지센터,전라북도 부안군 부안읍 옹정로 152-4,063-581-1281,2023-01-01 ~ 2025-12-31 (3년),재가노인복지시설,해당없음,해당없음,해당없음,해당,해당없음,해당없음,35.70197095,126.7465816,전라북도 부안군 부안읍 옹정로 152-4
467,전북특별자치도,부안군,부안종합사회복지관,전라북도 부안군 용암로 134,063-580-7600,2023-01-01 ~ 2025-12-31 (3년),사회복지관,해당없음,해당없음,해당없음,해당없음,해당없음,해당없음,35.71671515,126.7459457,전라북도 부안군 용암로 134
468,전북특별자치도,순창군,순창군청,전라북도 순창군 순창읍 순창로 127 행복누리센터 2층 독거노인지원센터,063-650-1543,2023-01-02 ~ 2025-12-31 (3년),직영(지자체),해당없음,해당,해당없음,해당없음,해당없음,해당없음,35.36642342,127.1406567,전라북도 순창군 순창읍 순창로 127 행복누리센터 2층 독거노인지원센터
469,전북특별자치도,순창군,순창지역자활센터,전라북도 순창군 순창읍 교성2길 31,063-653-0920,2023-01-01 ~ 2024-12-31 (2년),지역자활센터,해당없음,해당없음,해당없음,해당없음,해당없음,해당없음,35.37262351,127.1374136,전라북도 순창군 순창읍 교성2길 31
470,전북특별자치도,완주군,완주지역자활센터,전라북도 완주군 삼례읍 별산농원길 20,063-232-1377,2020-01-01 ~ 2024-12-31 (5년),지역자활센터,해당없음,해당없음,해당없음,해당없음,해당없음,해당없음,35.92369802,127.092425,전라북도 완주군 삼례읍 별산농원길 20
471,전북특별자치도,완주군,용진노인복지센터,전라북도 완주군 용진읍 상운길 11-14,063-241-9111,2023-01-01 ~ 2024-12-31 (2년),재가노인복지시설,해당없음,해당없음,해당,해당,해당없음,해당없음,35.88496357,127.153497,전라북도 완주군 용진읍 상운길 11-14
472,전북특별자치도,완주군,예은노인복지센터,전라북도 완주군 상관면 춘향로 4615-44,063-232-2442,2020-01-01 ~ 2024-12-31 (5년),재가노인복지시설,해당없음,해당없음,해당없음,해당없음,해당없음,해당없음,35.6958631,127.248786,전라북도 완주군 상관면 춘향로 4615-44
473,전북특별자치도,완주군,구이노인복지센터,전라북도 완주군 구이면 하학길 37-3,063-222-6085,2023-01-01 ~ 2024-12-31 (2년),재가노인복지시설,해당없음,해당없음,해당,해당,해당없음,해당없음,35.73104316,127.1165387,전라북도 완주군 구이면 하학길 37-3
474,전북특별자치도,완주군,완주노인복지센터,전라북도 완주군 고산면 고산천로 401-6,063-261-4266,2020-01-01 ~ 2024-12-31 (5년),사회복지법인,해당없음,해당없음,해당없음,해당,해당없음,해당,35.97401093,127.1891176,전라북도 완주군 고산면 고산천로 401-6
475,전북특별자치도,익산시,원광효도마을노인복지센터,전라북도 익산시 함라면 용산로429 원광효도마을 노인복지센터,063-853-9743,2023-01-01 ~ 2025-12-31 (3년),재가노인복지시설,해당없음,해당없음,해당없음,해당,해당없음,해당없음,36.05324997,126.9200347,전라북도 익산시 함라면 용산로429 원광효도마을 노인복지센터
476,전북특별자치도,익산시,북익산노인복지센터,전라북도 익산시 황등면 동연1길 33,063-855-0066,2023-01-01 ~ 2025-12-31 (3년),재가노인복지시설,해당없음,해당없음,해당없음,해당,해당없음,해당없음,36.00841295,126.9418084,전라북도 익산시 황등면 동연1길 33
477,전북특별자치도,익산시,동행노인복지센터,전라북도 익산시 동서로 349(영등동),063-843-1005,2023-01-01 ~ 2025-12-31 (3년),재가노인복지시설,해당없음,해당없음,해당없음,해당,해당없음,해당,35.95045169,126.9722134,전라북도 익산시 동서로 349
478,전북특별자치도,익산시,익산시노인종합복지관,전라북도 익산시 동서로 103,063-837-7722,2023-01-01 ~ 2025-12-31 (3년),노인여가복지시설,해당,해당,해당없음,해당없음,해당없음,해당,35.95376385,126.9576937,전라북도 익산시 동서로 103
479,전북특별자치도,익산시,임마누엘노인복지센터,전라북도 익산시 춘포로 22,063-918-7791,2023-01-01 ~ 2025-12-31 (3년),재가노인복지시설,해당,해당없음,해당없음,해당,해당없음,해당없음,35.90280701,127.0350487,전라북도 익산시 춘포로 22
480,전북특별자치도,익산시,마한노인복지센터,전라북도 익산시 여산면 가람로334,063-832-0055,2023-01-01 ~ 2025-12-31 (3년),재가노인복지시설,해당없음,해당없음,해당없음,해당,해당없음,해당없음,36.05481069,127.0861157,전라북도 익산시 여산면 가람로334
481,전북특별자치도,임실군,임실군노인종합복지관,전라북도 임실군 임실읍 운수로 33-46,063-644-4438,2023-01-01 ~ 2025-12-31 (3년),노인여가복지시설,해당없음,해당,해당없음,해당없음,해당없음,해당없음,35.61400008,127.2845232,전라북도 임실군 임실읍 운수로 33-46
482,전북특별자치도,임실군,사랑요양원,전라북도 임실군 삼계면 충효로 1623-4,063-642-9191,2023-01-01 ~ 2025-12-31 (3년),요양시설,해당없음,해당없음,해당없음,해당없음,해당없음,해당,35.52271491,127.2840043,전라북도 임실군 삼계면 충효로 1623-4
483,전북특별자치도,장수군,장수군노인장애인복지관,전라북도 장수군 장수읍 노하3길 16,063-784-7601,2023-01-01 ~ 2024-06-30 (2년),노인여가복지시설,해당없음,해당,해당없음,해당없음,해당없음,해당없음,35.65351288,127.5172932,전라북도 장수군 장수읍 노하3길 16
484,전북특별자치도,전주시,노인사랑노인복지센터,전라북도 전주시 완산구 남고산성1길 25,063-226-9723,2023-01-01 ~ 2025-12-31 (3년),재가노인복지시설,해당없음,해당없음,해당없음,해당,해당없음,해당,35.79816739,127.1564226,전라북도 전주시 완산구 남고산성1길 25
485,전북특별자치도,전주시,중부노인복지센터,"전라북도 전주시 완산구 전주객사4길 23-8, 중부노인복지센터 1층",063-286-0057,2023-01-01 ~ 2025-12-31 (3년),재가노인복지시설,해당없음,해당없음,해당없음,해당,해당없음,해당없음,35.81917609,127.1426897,전라북도 전주시 완산구 전주객사4길 23-8
486,전북특별자치도,전주시,이양재노인종합센터,전라북도 전주시 완산구 서학2길 33,063-282-2277,2023-01-01 ~ 2025-12-31 (3년),재가노인복지시설,해당없음,해당없음,해당없음,해당,해당없음,해당없음,35.80616202,127.1505487,전라북도 전주시 완산구 서학2길 33
487,전북특별자치도,전주시,성예노인복지센터,전라북도 전주시 완산구 삼산길 74-5(삼천동3가),063-221-1312,2023-01-01 ~ 2025-12-31 (3년),재가노인복지시설,해당없음,해당없음,해당없음,해당,해당없음,해당없음,35.80206717,127.076849,전라북도 전주시 완산구 삼산길 74-5
488,전북특별자치도,전주시,샬롬노인복지센터,전라북도 전주시 완산구 능안자구길 53-54,063-224-8083,2023-01-01 ~ 2025-12-31 (3년),재가노인복지시설,해당없음,해당없음,해당없음,해당,해당없음,해당없음,35.80069269,127.0844756,전라북도 전주시 완산구 능안자구길 53-54
489,전북특별자치도,전주시,효경노인복지센터,"전라북도 전주시 완산구 호암로 82, 그린빌딩 502호",063-227-1360,2023-01-01 ~ 2025-12-31 (3년),재가노인복지시설,해당,해당없음,해당없음,해당,해당없음,해당없음,35.80823519,127.1033622,전라북도 전주시 완산구 호암로 82
490,전북특별자치도,전주시,우리노인복지센터,전라북도 전주시 덕진구 전주천서로 321,063-255-7179,2023-01-01 ~ 2025-12-31 (3년),재가노인복지시설,해당없음,해당없음,해당없음,해당,해당없음,해당없음,35.8283188,127.1286454,전라북도 전주시 덕진구 전주천서로 321
491,전북특별자치도,전주시,즐거운집노인복지센터,전라북도 전주시 덕진구 석소로 74-5(우아동2가),063-714-3535,2023-01-01 ~ 2025-12-31 (3년),재가노인복지시설,해당없음,해당없음,해당없음,해당,해당없음,해당없음,35.83408957,127.1680699,전라북도 전주시 덕진구 석소로 74-5
492,전북특별자치도,전주시,금암노인복지관,전라북도 전주시 덕진구 삼송5길 12,063-253-5728,2023-01-01 ~ 2025-12-31 (3년),노인여가복지시설,해당없음,해당,해당없음,해당없음,해당없음,해당,35.84340355,127.1373154,전라북도 전주시 덕진구 삼송5길 12
493,전북특별자치도,전주시,금암노인복지센터,전라북도 전주시 덕진구 금암 5길 32-5,063-253-6090,2023-01-01 ~ 2025-12-31 (3년),재가노인복지시설,해당없음,해당없음,해당없음,해당,해당없음,해당없음,35.84010467,127.1356744,전라북도 전주시 덕진구 금암 5길 32-5
494,전북특별자치도,전주시,엠마오노인복지센터,"전라북도 전주시 덕진구 혁신로 650 (여의동) , 3층 엠마오노인복지센터",063-231-5333,2023-01-01 ~ 2025-12-31 (3년),재가노인복지시설,해당,해당없음,해당없음,해당,해당없음,해당없음,35.8698335,127.072782,전라북도 전주시 덕진구 혁신로 650
495,전북특별자치도,전주시,여명노인복지센터,전북 전주시 완산구 배학1길 4-3 (효자동3가),063-224-5673,2023-01-01 ~ 2025-12-31 (3년),재가노인복지시설,해당없음,해당없음,해당없음,해당,해당없음,해당없음,35.81905401,127.0965477,전북 전주시 완산구 배학1길 4-3
496,전북특별자치도,전주시,동일노인복지센터,"전북 전주시 완산구 모악로 4704 (평화동2가, 선덕복지재단) 2층",070-5089-2954,2023-01-01 ~ 2025-12-31 (3년),재가노인복지시설,해당없음,해당없음,해당없음,해당,해당없음,해당없음,35.78917857,127.1315393,전북 전주시 완산구 모악로 4704  2층
497,전북특별자치도,정읍시,성공회행복노인복지센터,전라북도 정읍시 정읍사로 527,063-535-0252,2023-01-01 ~ 2025-12-31 (3년),재가노인복지시설,해당없음,해당없음,해당,해당,해당없음,해당없음,35.53871221,126.8554219,전라북도 정읍시 정읍사로 527
498,전북특별자치도,정읍시,정읍시노인복지관,전라북도 정읍시 금붕1길 212,063-538-3607,2023-01-01 ~ 2025-12-31 (3년),노인여가복지시설,해당없음,해당,해당없음,해당없음,해당없음,해당없음,35.55230548,126.888758,전라북도 정읍시 금붕1길 212
499,전북특별자치도,정읍시,하늘향노인복지센터,전라북도 정읍시 신태인읍 정신로 1204,063-571-9008,2023-01-01 ~ 2025-12-31 (3년),재가노인복지시설,해당,해당없음,해당없음,해당,해당없음,해당없음,35.69135459,126.881115,전라북도 정읍시 신태인읍 정신로 1204
500,전북특별자치도,정읍시,들꽃마을,전라북도 정읍시 칠보면 칠보중앙로 96 태영빌딩 2층 202호,063-537-1313,2023-01-01 ~ 2025-12-31 (3년),요양시설,해당없음,해당없음,해당없음,해당없음,해당없음,해당없음,35.60436926,126.991713,전라북도 정읍시 칠보면 칠보중앙로 96 태영빌딩 2층 202호
501,전북특별자치도,진안군,임마누엘재가노인복지센터,전라북도 진안군 성수면 용포로 166,063-433-8140,2020-01-01 ~ 2024-12-31 (5년),재가노인복지시설,해당없음,해당,해당없음,해당,해당없음,해당없음,35.72677705,127.2984543,전라북도 진안군 성수면 용포로 166
502,전북특별자치도,진안군,진안시니어클럽,전북 진안군 진안읍 진장로 29 2층,063-433-2233,2023-01-01 ~ 2024-12-31 (2년),노인일자리지원기관,해당없음,해당없음,해당없음,해당없음,해당없음,해당없음,35.79394805,127.4394517,전북 진안군 진안읍 진장로 29 2층
503,전라남도,강진군,강진노인맞춤돌봄센터,전라남도 강진군 군동면 석교로 139,061-432-7010,2021-01-01 ~ 2028-12-31 (8년),노인맞춤돌봄전담시설,해당없음,해당,해당없음,해당없음,해당없음,해당,34.64503182,126.8156191,전라남도 강진군 군동면 석교로 139
504,전라남도,고흥군,고흥군사회복지협의회,전라남도 고흥군 고흥읍 신계학림길 39. 고흥어울림센터 1층,061-832-2500,2024-01-01 ~ 2026-12-31 (3년),사회복지협의회,해당없음,해당,해당없음,해당없음,해당없음,해당없음,34.61378023,127.2879512,전라남도 고흥군 고흥읍 신계학림길 39. 고흥어울림센터 1층
505,전라남도,고흥군,고흥군노인복지관,전라남도 고흥군 고흥읍 고흥로 1941,061-830-4200,2004-01-01 ~ 2006-12-31 (3년),노인여가복지시설,해당없음,해당없음,해당없음,해당없음,해당없음,해당없음,34.6051978,127.281352,전라남도 고흥군 고흥읍 고흥로 1941
506,전라남도,곡성군,심청노인복지센터,전라남도 곡성군 옥과면 주산길 45-8,061-817-1500,2024-01-01 ~ 2025-12-31 (2년),재가노인복지시설,해당없음,해당,해당없음,해당,해당없음,해당없음,35.29112886,127.1463141,전라남도 곡성군 옥과면 주산길 45-8
507,전라남도,곡성군,(복)보문복지회 곡성노인맞춤돌봄,전남 곡성군 곡성읍 군청로 36,061-363-5210,2024-01-01 ~ 2025-12-31 (2년),사회복지법인,해당없음,해당없음,해당없음,해당없음,해당없음,해당없음,35.28120495,127.2924786,전남 곡성군 곡성읍 군청로 36
508,전라남도,광양시,광양시청,전남 광양시 광양읍 백운로 8-3 (광양노인복지관),061-797-2138,2024-01-01 ~ 2024-12-31 (1년),직영(지자체),해당,해당,해당없음,해당없음,해당없음,해당없음,34.97054826,127.5910746,전남 광양시 광양읍 백운로 8-3
509,전라남도,구례군,구례재가사랑노인복지센터,전라남도 구례군 구례읍 택지 2길 42-6,061-781-9462,2024-01-01 ~ 2026-12-31 (3년),재가노인복지시설,해당없음,해당,해당,해당,해당없음,해당없음,35.21443038,127.4603234,전라남도 구례군 구례읍 택지 2길 42-6
510,전라남도,나주시,동신대학교 산학협력단,전라남도 나주시 동신대길 34-15 4층 402호,061-330-2992,2023-01-01 ~ 2024-12-31 (2년),학교,해당,해당없음,해당없음,해당없음,해당없음,해당없음,35.05332763,126.7176853,전라남도 나주시 동신대길 34-15 4층 402호
511,전라남도,나주시,고구려대학교노인복지센터,"전라남도 나주시 다시면 백호로 125, 강의동 111호",061-930-3591,2023-01-01 ~ 2024-12-31 (2년),재가노인복지시설,해당없음,해당없음,해당없음,해당,해당없음,해당없음,35.00824677,126.649143,전라남도 나주시 다시면 백호로 125
512,전라남도,담양군,메니노인전문요양원,전라남도 담양군 담양읍 죽향문화로 178-1,061-381-0685,2024-01-01 ~ 2025-12-31 (2년),요양시설,해당없음,해당없음,해당없음,해당없음,해당없음,해당없음,35.31776633,126.9724048,전라남도 담양군 담양읍 죽향문화로 178-1
513,전라남도,담양군,담양군향촌노인종합복지관,전라남도 담양군 담양읍 죽향문화로 431-33,061-380-1301,2024-01-01 ~ 2025-12-31 (2년),노인여가복지시설,해당없음,해당,해당없음,해당없음,해당없음,해당,35.31776633,126.9724048,전라남도 담양군 담양읍 죽향문화로 431-33
514,전라남도,목포시,하당노인복지관,전라남도 목포시 입암로 20번길 25(상동 942번지),061-285-0582,2023-07-03 ~ 2025-12-31 (3년),노인여가복지시설,해당,해당,해당없음,해당없음,해당없음,해당,34.79969282,126.4189142,전라남도 목포시 입암로 20번길 25
515,전라남도,목포시,목포이랜드노인복지관,전라남도 목포시 용당로 161번길 14,061-278-0200,2023-01-01 ~ 2025-12-31 (3년),노인여가복지시설,해당없음,해당없음,해당없음,해당,해당없음,해당없음,34.80183332,126.3992268,전라남도 목포시 용당로 161번길 14
516,전라남도,목포시,목포시노인복지관,전라남도 목포시 호남로 67번길 5,061-278-8515,2023-01-01 ~ 2025-12-31 (3년),노인여가복지시설,해당,해당없음,해당,해당,해당없음,해당없음,34.79481867,126.3859917,전라남도 목포시 호남로 67번길 5
517,전라남도,목포시,하나노인복지관,전남 목포시 해안로229번길 9-1 (영해동1가),061-242-5354,2023-01-01 ~ 2025-12-31 (3년),노인여가복지시설,해당없음,해당없음,해당없음,해당없음,해당없음,해당없음,34.78618211,126.3858986,전남 목포시 해안로229번길 9-1
518,전라남도,무안군,에덴재가노인복지센터,전라남도 무안군 청계면 영산로 1807-63,061-454-7993,2023-01-01 ~ 2025-12-31 (3년),재가노인복지시설,해당없음,해당,해당없음,해당,해당없음,해당,34.92848818,126.4298801,전라남도 무안군 청계면 영산로 1807-63
519,전라남도,무안군,무안군사회복지협의회,전남 무안군 무안읍 동문안길 56-1. 2층,061-453-9996,2023-01-01 ~ 2025-12-31 (3년),사회복지협의회,해당없음,해당없음,해당없음,해당없음,해당없음,해당없음,34.98859313,126.4766821,전남 무안군 무안읍 동문안길 56-1. 2층
520,전라남도,보성군,보성종합사회복지관,전라남도 보성군 보성읍 동인길 18-6,061-852-9845,2024-01-01 ~ 2026-12-31 (3년),사회복지관,해당없음,해당,해당없음,해당없음,해당없음,해당없음,34.7705265,127.0833409,전라남도 보성군 보성읍 동인길 18-6
521,전라남도,보성군,보성군노인복지관,전라남도 보성군 벌교읍 신정길 47-23,061-858-8900,2021-01-01 ~ 2023-12-31 (3년),노인여가복지시설,해당없음,해당없음,해당없음,해당없음,해당없음,해당없음,34.8397005,127.3564329,전라남도 보성군 벌교읍 신정길 47-23
522,전라남도,보성군,보성지역자활센터,전라남도 보성군 득량면 예당길 150-4,061-853-9955,2024-01-01 ~ 2026-12-31 (3년),지역자활센터,해당없음,해당없음,해당없음,해당없음,해당없음,해당없음,34.77697499,127.1946213,전라남도 보성군 득량면 예당길 150-4
523,전라남도,순천시,월드비전커뮤니티,전라남도 순천시 해룡면 상성길272,061-724-7459,2023-01-01 ~ 2025-12-31 (3년),법인,해당,해당없음,해당없음,해당없음,해당없음,해당없음,34.94295512,127.537137,전라남도 순천시 해룡면 상성길272
524,전라남도,순천시,주암댐노인복지관,전남 순천시 승주읍 승주로 696 주암댐노인복지관,061-755-7463,2023-01-01 ~ 2025-12-31 (3년),사회복지법인,해당없음,해당,해당없음,해당없음,해당없음,해당없음,35.01359518,127.3858447,전남 순천시 승주읍 승주로 696 주암댐노인복지관
525,전라남도,순천시,순천시사회복지협의회,전남 순천시 역전2길 16 (조곡동),061-745-8206,2023-01-01 ~ 2025-12-31 (3년),사회복지협의회,해당없음,해당없음,해당없음,해당없음,해당없음,해당없음,34.94722413,127.4982204,전남 순천시 역전2길 16
526,전라남도,여수시,여수시노인복지관,전라남도 여수시 학동서4길 58-16,061-685-2381,2024-01-01 ~ 2026-12-31 (3년),노인여가복지시설,해당,해당,해당없음,해당없음,해당없음,해당없음,34.76371425,127.6582364,전라남도 여수시 학동서4길 58-16
527,전라남도,여수시,소라종합사회복지관,전라남도 여수시 덕양로 414,061-685-9771,2024-01-01 ~ 2026-12-31 (3년),사회복지관,해당없음,해당,해당없음,해당없음,해당없음,해당,34.7979752,127.630867,전라남도 여수시 덕양로 414
528,전라남도,여수시,미평종합사회복지관,"전라남도 여수시 미평로 77-1 (미평동, 주공아파트) 미평종합사회복지관",061-652-3457,2020-01-01 ~ 2023-12-31 (4년),사회복지관,해당,해당,해당없음,해당없음,해당없음,해당,34.77114047,127.7091754,전라남도 여수시 미평로 77-1  미평종합사회복지관
529,전라남도,여수시,문수종합사회복지관,전라남도 여수시 여문2로 11-10,061-652-4242,2024-01-01 ~ 2026-12-31 (3년),사회복지관,해당없음,해당없음,해당없음,해당없음,해당없음,해당,34.75104452,127.6924704,전라남도 여수시 여문2로 11-10
530,전라남도,신안군,전남신안지역자활센터,전라남도 신안군 압해읍 복룡로 53,061-271-6602,2024-01-01 ~ 2025-12-31 (2년),지역자활센터,해당없음,해당없음,해당없음,해당없음,해당없음,해당없음,34.90280104,126.3323499,전라남도 신안군 압해읍 복룡로 53
531,전라남도,신안군,신안노인복지센터,전라남도 신안군 팔금면 탑목개길 162-10,061-271-4147,2021-01-01 ~ 2023-12-31 (3년),재가노인복지시설,해당없음,해당,해당,해당없음,해당없음,해당없음,34.7764441,126.141662,전라남도 신안군 팔금면 탑목개길 162-10
532,전라남도,영광군,비룡노인맞춤돌봄센터,전라남도 영광군 영광읍 물무로 237-15,061-351-2252,2023-01-01 ~ 2024-12-31 (2년),노인맞춤돌봄전담시설,해당,해당없음,해당없음,해당없음,해당없음,해당없음,35.27631616,126.5165778,전라남도 영광군 영광읍 물무로 237-15
533,전라남도,영광군,영광지역자활센터,전남 영광군 영광읍 중앙로4길 7-1,061-353-2000,2023-01-01 ~ 2024-12-31 (2년),지역자활센터,해당없음,해당없음,해당,해당없음,해당없음,해당없음,35.27507648,126.5141527,전남 영광군 영광읍 중앙로4길 7-1
534,전라남도,영광군,청람노인복지센터,전라남도 영광군 영광읍 옥당로 233-16,061-352-3273,2023-01-01 ~ 2024-12-31 (2년),재가노인복지시설,해당없음,해당없음,해당,해당,해당없음,해당없음,35.28349292,126.5007872,전라남도 영광군 영광읍 옥당로 233-16
535,전라남도,영암군,영암지역자활센터,전라남도 영암군 영암읍 새동네길 22-1,061-471-9933,2023-01-01 ~ 2025-12-31 (3년),지역자활센터,해당없음,해당,해당없음,해당없음,해당없음,해당없음,34.79637721,126.6907062,전라남도 영암군 영암읍 새동네길 22-1
536,전라남도,영암군,정우재가노인복지센터,전라남도 영암군 서호면 아천새마을길11,061-472-0303,2023-01-01 ~ 2025-12-31 (3년),사회복지법인,해당없음,해당없음,해당없음,해당,해당없음,해당없음,34.74980177,126.6055935,전라남도 영암군 서호면 아천새마을길11
537,전라남도,완도군,완도지역자활센터,전라남도 완도군 완도읍 군내길 20-1,061-554-1001,2024-01-01 ~ 2026-12-31 (3년),지역자활센터,해당없음,해당,해당없음,해당없음,해당없음,해당없음,34.31176175,126.7572078,전라남도 완도군 완도읍 군내길 20-1
538,전라남도,장성군,장성군청,전라남도 장성군 영천로 200 장성군청 가족행복과,061-390-1989,2020-01-01 ~ 2024-12-31 (5년),직영(지자체),해당없음,해당,해당없음,해당없음,해당없음,해당없음,35.30191231,126.7848767,전라남도 장성군 영천로 200 장성군청 가족행복과
539,전라남도,장성군,프란치스꼬의집,전라남도 장성군 진원면 덕주1길 10,061-390-9660,2024-01-01 ~ 2026-12-31 (3년),요양시설,해당없음,해당없음,해당없음,해당없음,해당없음,해당없음,35.27483875,126.8327285,전라남도 장성군 진원면 덕주1길 10
540,전라남도,진도군,진도군청,전라남도 진도군 진도읍 철마길 25,061-540-1275,2020-01-01 ~ 2024-12-31 (5년),기타,해당없음,해당,해당없음,해당없음,해당없음,해당없음,34.48736225,126.2650035,전라남도 진도군 진도읍 철마길 25
541,전라남도,함평군,사회복지법인 함평군사회복지협의회,전라남도 함평군 함평읍 함장로 1071(2층),061-324-6337,2024-01-01 ~ 2026-12-31 (3년),사회복지협의회,해당없음,해당,해당없음,해당없음,해당없음,해당없음,35.05585827,126.5137172,전라남도 함평군 함평읍 함장로 1071
542,전라남도,함평군,전남함평지역자활센터,전남 함평군 함평읍 함평천좌길 12-8,061-324-9556,2024-01-01 ~ 2026-12-31 (3년),지역자활센터,해당없음,해당없음,해당없음,해당없음,해당없음,해당없음,35.0599801,126.5260446,전남 함평군 함평읍 함평천좌길 12-8
543,전라남도,해남군,해남노인종합복지관,전라남도 해남군 해남읍 서림길 16,061-537-0012,2023-01-01 ~ 2025-12-31 (3년),노인여가복지시설,해당없음,해당,해당없음,해당없음,해당없음,해당없음,34.57497977,126.5939128,전라남도 해남군 해남읍 서림길 16
544,전라남도,해남군,해남종합사회복지관,전라남도 해남군 해남읍 중앙 1로 14-14 해남종합사회복지관,061-534-6777,2023-01-01 ~ 2025-12-31 (3년),사회복지관,해당없음,해당없음,해당없음,해당없음,해당없음,해당,34.57149007,126.6068384,전라남도 해남군 해남읍 중앙 1로 14-14 해남종합사회복지관
545,전라남도,장흥군,장흥종합사회복지관,전라남도 장흥군 장흥읍 흥성로 37-24,061-864-4804,2020-01-01 ~ 2023-12-31 (4년),사회복지관,해당없음,해당,해당없음,해당,해당없음,해당없음,34.67441903,126.9072935,전라남도 장흥군 장흥읍 흥성로 37-24
546,전라남도,장흥군,장흥지역자활센터,전라남도 장흥군 장흥읍 흥성로 17,061-862-8266,2023-01-01 ~ 2025-12-31 (3년),지역자활센터,해당없음,해당없음,해당없음,해당없음,해당없음,해당,34.67441903,126.9072935,전라남도 장흥군 장흥읍 흥성로 17
547,전라남도,화순군,나드리노인복지관,전라남도 화순군 화순읍 학포로 2642,061-371-1166,2023-01-01 ~ 2025-12-31 (3년),노인여가복지시설,해당없음,해당없음,해당없음,해당없음,해당없음,해당없음,35.05011518,126.9670996,전라남도 화순군 화순읍 학포로 2642
548,전라남도,화순군,화순군사회복지협의회,전남 화순군 화순읍 정곡로 115,061-373-6800,2024-01-01 ~ 2025-12-31 (2년),기타,해당없음,해당없음,해당없음,해당없음,해당없음,해당없음,35.04268582,126.9539182,전남 화순군 화순읍 정곡로 115
549,경상북도,경산시,보현전문요양원,경상북도 경산시 와촌면 상암길 37길 64,053-853-3538,2023-01-01 ~ 2025-12-31 (3년),사회복지법인,해당없음,해당없음,해당없음,해당없음,해당없음,해당없음,35.94705449,128.8536725,경상북도 경산시 와촌면 상암길 37길 64
550,경상북도,경산시,경산청솔재가노인통합지원센터,"경상북도 경산시 자인면 설총로 945, 2층",053-851-8771,2023-01-01 ~ 2025-12-31 (3년),재가노인복지시설,해당없음,해당없음,해당없음,해당,해당없음,해당,35.82026769,128.824485,경상북도 경산시 자인면 설총로 945
551,경상북도,경산시,경산시재가노인통합지원센터,경상북도 경산시 원효로 26길5,053-811-1394,2023-01-01 ~ 2025-12-31 (3년),재가노인복지시설,해당,해당,해당없음,해당,해당없음,해당없음,35.82191779,128.7508376,경상북도 경산시 원효로 26길5
552,경상북도,경산시,한국돌봄사회적협동조합경산지부,경상북도 경산시 경안로 118번지,053-811-3139,2023-01-01 ~ 2025-12-31 (3년),협동조합,해당없음,해당없음,해당없음,해당없음,해당없음,해당,35.81808144,128.7385655,경상북도 경산시 경안로 118번지
553,경상북도,경주시,경주재가노인통합지원센터,경상북도 경주시 양정로 251번길 19. 3층,054-742-9042,2023-01-01 ~ 2024-12-31 (2년),재가노인복지시설,해당,해당없음,해당없음,해당,해당없음,해당없음,35.85501617,129.2219314,경상북도 경주시 양정로 251번길 19. 3층
554,경상북도,경주시,하나재가노인통합지원센터,경상북도 경주시 안강읍 구부랑두림길 131,054-763-1180,2023-01-01 ~ 2024-12-31 (2년),재가노인복지시설,해당없음,해당없음,해당없음,해당,해당없음,해당없음,36.00400263,129.1985569,경상북도 경주시 안강읍 구부랑두림길 131
555,경상북도,경주시,참사랑재가노인통합지원센터,경북 경주시 양정로 144-23 (성동동),054-774-8860,2023-01-01 ~ 2024-12-31 (2년),재가노인복지시설,해당없음,해당,해당없음,해당없음,해당없음,해당없음,35.84725951,129.2220212,경북 경주시 양정로 144-23
556,경상북도,경주시,공영재가노인통합지원센터,경상북도 경주시 귀격1길 21-52 공영재가노인통합지원센터,054-771-2601,2023-01-01 ~ 2024-12-31 (2년),재가노인복지시설,해당없음,해당없음,해당없음,해당,해당없음,해당,35.76786068,129.2681027,경상북도 경주시 귀격1길 21-52 공영재가노인통합지원센터
557,경상북도,경주시,경주시종합사회복지관,경상북도 경주시 승삼1길 32 경주시종합사회복지관 2층 사무실,054-771-8107,2023-01-01 ~ 2024-12-31 (2년),사회복지관,해당없음,해당,해당없음,해당없음,해당없음,해당없음,35.87888925,129.2309576,경상북도 경주시 승삼1길 32 경주시종합사회복지관 2층 사무실
558,경상북도,구미시,성심재가노인통합지원센터,경상북도 구미시 선산읍 단계서길83-8,054-481-7074,2024-01-01 ~ 2024-12-31 (1년),재가노인복지시설,해당없음,해당없음,해당없음,해당,해당없음,해당없음,36.24450153,128.2965634,경상북도 구미시 선산읍 단계서길83-8
559,경상북도,구미시,금오재가노인통합지원센터,경상북도 구미시 해평면 송곡2길 36,054-472-0408,2024-01-01 ~ 2024-12-31 (1년),재가노인복지시설,해당없음,해당없음,해당없음,해당,해당없음,해당없음,36.22332673,128.3855582,경상북도 구미시 해평면 송곡2길 36
560,경상북도,구미시,강동재가노인통합지원센터,"경상북도 구미시 형곡동로 3길 9, 2층",054-473-4008,2024-01-01 ~ 2025-12-31 (2년),재가노인복지시설,해당,해당없음,해당없음,해당,해당없음,해당없음,36.10410225,128.3350904,경상북도 구미시 형곡동로 3길 9
561,경상북도,구미시,구미재가노인통합지원센터,"경상북도 구미시 검성로 115, 7703동 101~103호(구미재가노인통합지원센터)",054-472-5080,2024-01-01 ~ 2025-12-31 (2년),재가노인복지시설,해당없음,해당없음,해당없음,해당,해당없음,해당없음,36.11854803,128.4314465,경상북도 구미시 검성로 115
562,경상북도,구미시,은빛재가노인통합지원센터,경북 구미시 송원서로8길 57 (원평동),054-458-7779,2024-01-01 ~ 2025-12-31 (2년),재가노인복지시설,해당없음,해당,해당없음,해당,해당없음,해당없음,36.12360768,128.3500714,경북 구미시 송원서로8길 57
563,경상북도,고령군,고령지역자활센터,경상북도 고령군 대가야읍 왕릉로 30 대가야문화누리 2층,054-954-8320,2024-01-01 ~ 2025-12-31 (2년),지역자활센터,해당없음,해당없음,해당없음,해당없음,해당없음,해당없음,35.72357555,128.2630942,경상북도 고령군 대가야읍 왕릉로 30 대가야문화누리 2층
564,경상북도,고령군,사회복지법인수경재단,경북 고령군 다산면 호촌길 23-10 2층,054-954-7233,2024-01-01 ~ 2025-12-31 (2년),사회복지법인,해당없음,해당,해당,해당,해당없음,해당없음,35.82790978,128.4551215,경북 고령군 다산면 호촌길 23-10 2층
565,경상북도,김천시,김천지역자활센터,경상북도 김천시 강변로 36(감호동),054-435-8985,2023-01-01 ~ 2024-12-31 (2년),지역자활센터,해당없음,해당없음,해당없음,해당없음,해당없음,해당없음,36.12191193,128.1298821,경상북도 김천시 강변로 36
566,경상북도,김천시,김천재가노인통합지원센터,경상북도 김천시 평화중앙6길 36,054-439-0162,2022-01-01 ~ 2024-12-31 (3년),재가노인복지시설,해당없음,해당,해당없음,해당,해당없음,해당없음,36.12166007,128.1133175,경상북도 김천시 평화중앙6길 36
567,경상북도,김천시,김천시노인복지관,경상북도 김천시 중앙공원1길 16,054-435-6340,2023-01-01 ~ 2027-12-31 (5년),노인여가복지시설,해당,해당없음,해당없음,해당없음,해당없음,해당없음,36.1192927,128.1194969,경상북도 김천시 중앙공원1길 16
568,경상북도,문경시,문경시종합사회복지관,경상북도 문경시 매봉4길 25,054-556-0991,2023-01-01 ~ 2025-12-31 (3년),사회복지관,해당,해당,해당없음,해당없음,해당없음,해당없음,36.58666401,128.1836473,경상북도 문경시 매봉4길 25
569,경상북도,문경시,문경지역자활센터,경상북도 문경시 호서로 196 (흥덕동),054-554-0407,2023-01-01 ~ 2025-12-31 (3년),지역자활센터,해당없음,해당없음,해당없음,해당없음,해당없음,해당없음,36.61099981,128.2058164,경상북도 문경시 호서로 196
